City Name,Latitude,Longitude
Новосибирск,55.0288307,82.9226887
London,51.5074456,-0.1277653
Wellington,-41.2887953,174.7772114
Itajaí,-26.9046787,-48.6552979
Wells,51.2094511,-2.6451203
Leeds,53.7974185,-1.5437941
Αθήνα,37.9755648,23.7348324
Baltimore,39.2908816,-76.610759
Bath,51.3813864,-2.3596963
Ljubljana,46.0500268,14.5069289
Chester,53.1908873,-2.8908955
Charleroi,50.4116233,4.444528
Λεμεσός,34.6852901,33.0332657
Leicester,52.6362,-1.1331969
Lincoln,53.2293545,-0.5404819
Glasgow,55.861155,-4.2501687
Norwich,52.6285576,1.2923954
Oxford,51.7520131,-1.2578499
København,55.6867243,12.5700724
Sydney,-33.8698439,151.2082848
Quezon City,14.6510546,121.0486254
Helsingborg,56.0442098,12.703706
Mumbai,19.0785451,72.878176
New Delhi,28.6138954,77.2090057
Pune,18.521428,73.8544541
Taree,-31.912864,152.4608481
Erlangen,49.5928616,11.0056
Wien,48.2083537,16.3725042
Pécs,46.0765092,18.2280317
Portsmouth,50.800031,-1.0906023
Paris,48.8534951,2.3483915
Gloucester,51.8653705,-2.2458192
Coventry,52.4081812,-1.510477
Birmingham,52.4796992,-1.9026911
Edinburgh,55.9533456,-3.1883749
Canterbury,51.2800275,1.0802533
Peterborough,52.5725769,-0.2427336
Plymouth,50.3714122,-4.1424451
Exeter,50.7255794,-3.5269497
Toronto,43.6534817,-79.3839347
Hildesheim,52.1521636,9.9513046
Bern,46.9484742,7.4521749
Ottawa,45.4208777,-75.6901106
Cleveland,41.4996574,-81.6936772
Toledo,41.6529143,-83.5378173
Detroit,42.3315509,-83.0466403
Hamilton,43.2560802,-79.8728583
Cambridge,43.3600536,-80.3123023
Duluth,46.7729322,-92.1251218
Thunder Bay,48.406414,-89.259796
Green Bay,44.5126379,-88.0125794
Toowoomba,-27.5610193,151.953351
Milton Keynes,52.0406502,-0.7594092
Lyon,45.7578137,4.8320114
Chemnitz,50.8323531,12.918914
Dresden,51.0493286,13.7381437
Hamburg,53.550341,10.000654
Newcastle upon Tyne,54.9738474,-1.6131572
York,53.9590555,-1.0815361
Wollongong,-34.4243941,150.89385
Carlisle,54.8948478,-2.9362311
Köln,50.938361,6.959974
Sunderland,54.9058512,-1.3828727
Cambridge,52.2055314,0.1186637
Worcester,52.1911849,-2.2206585
Linköping,58.4098135,15.6245252
Oslo,59.9133301,10.7389701
Bremen,53.0758196,8.8071646
Graz,47.0708678,15.4382786
Chelmsford,51.7345329,0.4730532
Wakefield,53.6829541,-1.4967286
بغداد,33.3061701,44.3872213
Roskilde,55.6433478,12.0819247
Esbjerg,55.4664892,8.4520751
Inverness,57.4790124,-4.225739
Aberdeen,57.1482429,-2.0928095
Swansea,51.6195955,-3.9459248
Madrid,40.4167047,-3.7035825
Stirling,56.1181242,-3.9360012
Lichfield,52.6843696,-1.8275286
Durham,54.7770139,-1.5756205
Bergen,60.3943055,5.3259192
Perth,56.3958186,-3.4286805
Dundee,56.4605938,-2.97019
Hereford,52.0553813,-2.7151735
Herne,51.5380394,7.219985
Alacant / Alicante,38.3436365,-0.4881708
Bangor,53.2277163,-4.1268822
Liverpool,53.4071991,-2.99168
Preston,53.7593363,-2.6992717
Honolulu,21.304547,-157.855676
Hilo,19.7073734,-155.08158
Ipswich,-27.6160323,152.7608348
Colchester,51.8896903,0.8994651
Belleville,44.1633264,-77.3852556
Jihlava,49.396064,15.5903065
Melbourne,-37.8142454,144.9631732
Sarnia,42.9743821,-82.403533
Peterborough,44.3048009,-78.3199496
Pori,61.4865443,21.7968859
Narva,59.3766729,28.1921457
Canberra,-35.2975906,149.1012676
Port Macquarie,-31.4299499,152.9103525
Leipzig,51.3406321,12.3747329
کابل,34.5260109,69.1776838
Haugesund,59.413807,5.2681249
Córdoba,37.8845813,-4.7760138
Málaga,36.7213028,-4.4216366
Turku,60.4517531,22.2670522
Derby,52.9212617,-1.4761491
Porvoo,60.3953913,25.6604862
Kiel,54.3227085,10.135555
Nottingham,52.9534193,-1.1496461
Halifax,44.648618,-63.5859487
Viseu,40.6574713,-7.9138664
Braga,41.5510583,-8.4280045
Topeka,39.049011,-95.677556
Linz,48.3059078,14.286198
北京市,39.9057136,116.3912972
Évora,38.5707742,-7.9092808
Vila Real,41.2976935,-7.7457614
Setúbal,38.5241783,-8.8932341
Portalegre,39.2911347,-7.4333887
Santarém,39.2363637,-8.6867081
Leiria,39.7437902,-8.8071119
Bragança,41.8071182,-6.7589839
Faro,37.0162727,-7.9351771
Angra do Heroísmo,38.6593167,-27.2195578
Funchal,32.6496497,-16.9086783
Lamego,41.098527,-7.8105708
Mangualde,40.60354,-7.7656
Santa Comba Dão,40.3961137,-8.1299564
Tarouca,41.01624,-7.7752378
Tondela,40.51642,-8.08053
São João da Madeira,40.9020813,-8.4896358
Oliveira de Azeméis,40.8390118,-8.4777807
Santa Maria da Feira,40.9254179,-8.5426688
Serpa,37.9436517,-7.5966902
Moura,38.1409785,-7.4500699
Barcelos,41.5314496,-8.6192306
Vizela,41.3767158,-8.3083651
Macedo de Cavaleiros,41.5362124,-6.9560267
Mirandela,41.489615,-7.1774792
Covilhã,40.2804021,-7.504191
Oliveira do Hospital,40.3595402,-7.8617453
Borba,38.8057942,-7.4542105
Estremoz,38.8432944,-7.586907
Machico,32.722875,-16.7659069
Lagoa,37.747009,-25.578405
Ponta Delgada,37.7393398,-25.6689503
Horta,38.5368032,-28.630109
Ribeira Grande,37.8225227,-25.5194914
Praia da Vitória,38.7309841,-27.0603527
Reguengos de Monsaraz,38.4243996,-7.5347109
Vendas Novas,38.6773855,-8.4552427
Silves,37.1894106,-8.4395781
Lagoa,37.1362908,-8.4540842
Tavira,37.1262493,-7.6499121
Olhão,37.0270369,-7.8411287
Loulé,37.1398973,-8.0233126
Lagos,37.1027964,-8.6728689
Sabugal,40.3518321,-7.0896479
Trancoso,40.77847,-7.34908
Seia,40.4200998,-7.7028054
Peniche,39.3568749,-9.3786838
Marinha Grande,39.7495952,-8.9298895
Pombal,39.9161851,-8.6279171
Valença,42.0273051,-8.6404204
Dortmund,51.5142273,7.4652789
Lübeck,53.866444,10.684738
St Albans,51.753051,-0.3379675
Gqeberha,-33.9618359,25.6186512
Wolverhampton,52.5847651,-2.127567
Pretoria,-25.7459277,28.1879101
Växjö,56.8787183,14.8094385
Szekszárd,46.3484884,18.701663
Vila Franca de Xira,38.954278,-8.9897039
Odivelas,38.7904338,-9.1792617
Torres Vedras,39.0930856,-9.260741
Loures,38.8308741,-9.1684512
Elvas,38.8806123,-7.1637237
Paços de Ferreira,41.2760977,-8.3768913
Felgueiras,41.3647716,-8.1989321
Póvoa de Varzim,41.3794188,-8.7598689
Maia,41.2329846,-8.6222375
Amarante,41.2699316,-8.0804563
Gondomar,41.1398199,-8.5326269
Marco de Canaveses,41.1835352,-8.1493798
Trofa,41.3363471,-8.5585061
Vila do Conde,41.3540398,-8.7435403
Almeirim,39.2107506,-8.6340173
Cartaxo,39.1619462,-8.7863222
Rio Maior,39.3365387,-8.9364098
Entroncamento,39.4652196,-8.4682137
Tomar,39.6036596,-8.4150492
Ourém,39.65679,-8.57963
Abrantes,39.4631905,-8.1973618
Sines,37.956549,-8.8689639
Barreiro,38.6642226,-9.07651
Seixal,38.6422246,-9.1072662
Almada,38.6831302,-9.1576301
Alcácer do Sal,38.3729735,-8.5122705
Espinho,41.0083643,-8.6394111
Coimbra,40.2111931,-8.4294632
Ponte de Sor,39.2519303,-8.008997
Valpaços,41.6067883,-7.3108525
Peso da Régua,41.1637043,-7.7875821
Chaves,41.7399003,-7.4715213
Legazpi,13.1388596,123.7343104
Arad,46.1753793,21.3196342
Casablanca ⵜⴰⴷⴷⴰⵔⵜ ⵜⵓⵎⵍⵉⵍⵜ الدار البيضاء,33.5945144,-7.6200284
Uppsala,59.8586126,17.6387436
Würzburg,49.7933723,9.9309779
Moers,51.451283,6.62843
Williamsport,41.2493292,-77.0027671
Newcastle,-32.9272881,151.7812534
Ankara,39.9207759,32.8540497
Edirne,41.6759327,26.5587225
Çanakkale,40.146271,26.4028892
Kırklareli,41.7370223,27.2235523
Balıkesir,39.6473917,27.8879787
Muğla,37.2151202,28.3636912
Afyonkarahisar,38.7568597,30.5387044
Bilecik,40.1435101,29.9752911
Burdur,37.7248394,30.2887286
Düzce,40.8391531,31.1595361
Eskişehir,39.7743941,30.519116
Konya,37.872734,32.4924376
Kütahya,39.4199106,29.9857886
Manisa,38.6125793,27.4333969
Uşak,38.6792659,29.4048895
Yalova,40.6582529,29.2699916
Kaposvár,46.3564692,17.7886886
George,-33.9597212,22.4587148
Stockholm,59.3251172,18.0710935
Göteborg,57.7072326,11.9670171
تهران,35.6892523,51.3896004
Espoo,60.2047672,24.6568435
Karlstad,59.3809146,13.5027631
Coffs Harbour,-30.2962407,153.1135293
Žilina,49.2234674,18.7393139
Trenčín,48.8922719,18.0387465
Prešov,49.0000074,21.2392122
Trnava,48.3767652,17.5858175
Banská Bystrica,48.7383895,19.1585805
اصفهان,32.6707877,51.6650002
مشهد,36.2974945,59.6059232
تبریز,38.0738612,46.2978789
قزوین,36.2804074,50.006663
شیراز,29.6060218,52.5378041
Harrisburg,40.2663107,-76.8861122
Київ,50.4500336,30.5241361
Чернігів,51.494099,31.294332
Одеса,46.4843023,30.7322878
Львів,49.841952,24.0315921
Гомель,52.4238936,31.0131698
Мінск,53.9024716,27.5618225
Niagara Falls,43.1065603,-79.0639039
Târgu Mureș,46.5446253,24.561196
St. Catharines,43.1579812,-79.2441003
Bonn,50.735851,7.10066
La Habana,23.135305,-82.3589631
ارومیه,37.548341,45.0667111
Dunfermline,56.0713724,-3.4616183
Roodepoort,-26.1563889,27.8858333
Gdańsk,54.3482907,18.6540233
Gdynia,54.5164982,18.5402738
McKinney,33.1976496,-96.6154471
Adana,36.9863599,35.3252861
Hakkâri,37.5766959,43.7377862
Van,38.500875,43.3946051
Iğdır,39.9218784,44.0467957
Kahramanmaraş,37.5812744,36.927509
Mersin,36.7978381,34.6298391
Osmaniye,37.0733588,36.2507673
Aksaray,38.3705416,34.026907
Karaman,37.1808502,33.2194554
Kayseri,38.7219011,35.4873214
Kırıkkale,39.8410483,33.5058536
Kırşehir,39.1461142,34.1605587
Nevşehir,38.6250389,34.7150685
Niğde,37.969849,34.6764495
Sivas,39.7503572,37.0145185
Yozgat,39.8221974,34.8080972
Amasya,40.6503248,35.8329148
Artvin,41.1830811,41.8287448
Bartın,41.6338394,32.3384354
Bayburt,40.2551608,40.2205036
Çorum,40.5491496,34.9602453
Giresun,40.9174453,38.3847864
Gümüşhane,40.4617844,39.4757339
Karabük,41.1955402,32.6231154
Kastamonu,41.3765359,33.7770087
Ordu,40.9852301,37.8797732
Rize,41.0248249,40.5199142
Samsun,41.2946149,36.3320596
Sinop,42.0265798,35.1511512
Tokat,40.3233534,36.552162
Zonguldak,41.4505752,31.7920828
Ağrı,39.719125,43.0504894
Ardahan,41.1102966,42.7035585
Bingöl,38.8861265,40.4972333
Bitlis,38.4017779,42.1083064
Elâzığ,38.6747164,39.2227135
Muş,38.7322221,41.4898925
Erzincan,39.7467552,39.49103
Erzurum,39.90632,41.2727715
Kars,40.6076749,43.0948497
Malatya,38.3487153,38.3190674
Tunceli,39.1060641,39.5482693
Adıyaman,37.7602379,38.2772662
Batman,37.8835738,41.1277565
Diyarbakır,37.9162222,40.2363542
Gaziantep,37.0628317,37.3792617
Kilis,36.7165552,37.1146069
Mardin,37.3132581,40.7354383
Şanlıurfa,37.1596239,38.791929
Siirt,37.9273623,41.94218
Şırnak,37.5219577,42.4570311
Dallas,32.7762719,-96.7968559
Vitória da Conquista,-14.8567487,-40.8414804
Pinar del Río,22.4167422,-83.7002582
Stoke-on-Trent,53.0162014,-2.1812607
Алматы,43.2363924,76.9457275
Szczecin,53.4301818,14.5509623
Zielona Góra,51.9383777,15.5050408
Randers,56.4617545,10.0371476
Kolding,55.4894999,9.47905
Vejle,55.7000057,9.5333238
Aarhus,56.1496278,10.2134046
Odense,55.3997225,10.3852104
Santander,43.4620412,-3.8099719
မြစ်ကြီးနား,25.3833313,97.3999925
မကွေး,20.1491458,94.9213518
ပြင်ဦးလွင်,22.0331367,96.4667341
လွိုင်ကော်,19.674167,97.2094441
ရန်ကုန်,16.7967129,96.1609916
သထုံ,16.9136941,97.3689718
ပြည်,18.816667,95.216667
ပုသိမ်မြို့,16.783333,94.733333
လားရှိုး,22.933333,97.75
ရွှေဘို,22.5666618,95.6999989
စစ်ကိုင်း,21.8774215,95.9839956
ထားဝယ်မြို့,14.0797232,98.1990191
ပဲခူးမြို့,17.336667,96.479722
မြင်းခြံ,21.4587531,95.3924129
စစ်တွေ,20.15,92.9
တောင်ငူ,18.9402101,96.4332782
မန္တလေး,21.9596834,96.0948743
မုံရွာ,22.1182175,95.1324747
မိတ္ထီလာမြို့,20.8814233,95.8619463
ဟင်္သာတမြို့,17.6457472,95.4609517
မြိတ်မြို့,12.4319552,98.5955711
Sherman,33.6398609,-96.6089146
زاهدان,29.4928874,60.8503017
Saskatoon,52.131802,-106.660767
Martensville,52.2903172,-106.662554
Santa Clara,22.4065829,-79.9650993
Metz,49.1196964,6.1763552
Tours,47.3900474,0.6889268
Clermont-Ferrand,45.7774551,3.0819427
Reims,49.2577886,4.031926
Dijon,47.3215806,5.0414701
Orléans,47.9027336,1.9086066
Amiens,49.8941708,2.2956951
Toulouse,43.6044622,1.4442469
Limoges,45.8354243,1.2644847
Rennes,48.1113387,-1.6800198
Saint-Étienne,45.4401467,4.3873058
Nantes,47.2186371,-1.5541362
Besançon,47.2380222,6.0243622
Le Mans,48.0073849,0.1967849
Strasbourg,48.584614,7.7507127
Mulhouse,47.7467233,7.3389937
Angers,47.4739884,-0.5515588
Lille,50.6365654,3.0635282
Toulon,43.1257311,5.9304919
Nîmes,43.8374249,4.3600687
Rouen,49.4404591,1.0939658
Grenoble,45.1875602,5.7357819
Boulogne-Billancourt,48.8356649,2.240206
Aix-en-Provence,43.5298424,5.4474738
La Rochelle,46.1591126,-1.1520434
Poitiers,46.5802596,0.340196
Calais,50.9524769,1.8538446
Argenteuil,48.9479069,2.2481797
Belfort,47.6379599,6.8628942
Dunkerque,51.0347708,2.3772525
Valence,44.9332277,4.8920811
Montreuil,48.8623357,2.4412184
Saint-Denis,48.935773,2.3580232
Annecy,45.8992348,6.1288847
Nancy,48.6937223,6.1834097
Troyes,48.2971626,4.0746257
Lancaster,54.0484068,-2.7990345
Newport,51.5882332,-2.9974967
Hull,53.7435722,-0.3394758
Bradford,53.7944229,-1.7519186
Jelgava,56.6514394,23.7339143
Rīga,56.9493977,24.1051846
Regina,50.44876,-104.61731
Oujda ⵡⵊⴷⴰ وجدة,34.677874,-1.929306
Meknès ⴰⵎⴽⵏⴰⵙ مكناس,33.8984131,-5.5321582
El Jadida ⵊⴷⵉⴷⴰ الجديدة,33.2433309,-8.49884
Tan-Tan ⵟⴰⵏⵟⴰⵏ طانطان,28.437553,-11.098664
Eger,47.8989887,20.3743665
Debrecen,47.531399,21.6259782
Marseille,43.2961743,5.3699525
Heilbronn,49.142291,9.218655
Malmö,55.6052931,13.0001566
Valmiera,57.5389148,25.4261688
San Francisco,37.7792588,-122.4193286
Salford,53.4877463,-2.2891921
Truro,50.2633173,-5.0518107
Ripon,54.1362169,-1.5238006
Airdrie,51.28597,-114.01062
Северодвинск,64.563385,39.823769
Петрозаводск,61.7900426,34.390007
Bloemfontein,-29.116395,26.215496
Вологда,59.218876,39.893276
Deva,45.8817402,22.9008611
Тверь,56.858675,35.9208284
Bilbao,43.2630018,-2.9350039
Vitoria-Gasteiz,42.8465088,-2.6724025
Великий Новгород,58.5209862,31.2757862
Ann Arbor,42.2813722,-83.7484616
Flint,43.0161693,-83.6900211
Пушкин,59.722256,30.415731
Гатчина,59.5706273,30.1305083
Псков,57.8173923,28.3343465
دهب,28.4963633,34.5145652
Kinshasa,-4.3217055,15.3125974
Калининград,54.710128,20.5105838
Великие Луки,56.342361,30.527922
Смоленск,54.7814057,32.0461261
Брянск,53.2423778,34.3668288
الغردقة,27.222556,33.8307062
Курск,51.7309249,36.1923123
San Antonio,29.4246002,-98.4951405
Орёл,52.9687747,36.0694937
Белгород,50.5955595,36.5873394
Devonport,-41.1797561,146.3613011
Полтава,49.5897423,34.5507948
Запоріжжя,47.8507859,35.1182867
Jēkabpils,56.4958638,25.8687747
אילת,29.5569348,34.9497949
مرسى علم,25.069992,34.893817
القصير,26.104836,34.279764
سفاجا,26.7633325,33.9383817
Easton,40.6916081,-75.2099866
Liepāja,56.5048435,21.0070903
Poznań,52.4082663,16.9335199
Angeles,15.1389351,120.5875321
Брэст,52.093751,23.6851851
Olongapo,14.8314675,120.2835205
Kaunas,54.8982139,23.9044817
Vilnius,54.6870458,25.2829111
Klaipėda,55.7127529,21.1350469
Šiauliai,55.9340823,23.3157775
Chichester,50.8364862,-0.7791721
Евпатория,45.1907635,33.3679049
Basel,47.5581077,7.5878261
Fort Worth,32.753177,-97.3327459
Essen,51.4582235,7.0158171
City of London,51.5156177,-0.0919983
City of Westminster,51.4973206,-0.137149
Frankfurt am Main,50.1106444,8.6820917
Gävle,60.6750132,17.1467019
Umeå,63.8256568,20.2630745
Iquitos,-3.749365,-73.2444145
بندر انزلی,37.4716356,49.4685904
St Asaph,53.2575614,-3.4438607
Санкт-Петербург,59.938732,30.316229
Владивосток,43.1150678,131.8855768
Екатеринбург,56.839104,60.60825
Самара,53.198627,50.113987
Омск,54.991375,73.371529
Казань,55.7823547,49.1242266
Челябинск,55.1598408,61.4025547
Уфа,54.7261409,55.947499
Волгоград,48.7081906,44.5153353
Пермь,58.014965,56.246723
Саратов,51.530018,46.034683
Воронеж,51.6605982,39.2005858
Тольятти,53.5149884,49.4073316
Краснодар,45.0351532,38.9772396
Ярославль,57.6263877,39.8933705
Барнаул,53.3475493,83.7788448
Иркутск,52.2891225,104.279829
Новокузнецк,53.7575903,87.1358494
Оренбург,51.7671248,55.0978517
Рязань,54.6295687,39.7425039
Пенза,53.1953477,45.0190437
Тюмень,57.153534,65.542274
Нижний Новгород,56.3264816,44.0051395
Brăila,45.2716092,27.9742932
Focșani,45.697274,27.1856921
Västerås,59.6110992,16.5463679
Бишкек,42.8777895,74.6066926
Toshkent,41.3123363,69.2787079
Семей,50.404377,80.2496637
Houston,29.7589382,-95.3676974
Душанбе,38.5762709,68.7863573
Улаанбаатар ᠤᠯᠠᠭᠠᠨᠪᠠᠭᠠᠲᠤᠷ,47.9184676,106.9177016
Астана,51.1282205,71.4306682
همدان,34.7992888,48.5152464
Östersund,63.1793655,14.6357061
Luleå,65.5831187,22.1459535
Örnsköldsvik,63.2888613,18.7160209
Niamey,13.524834,2.109823
Luanda,-8.8272699,13.2439512
Constantine ⵇⵙⴻⵟⵉⵏⴰ قسنطينة,36.3641642,6.6084281
Bamako,12.649319,-8.000337
السويس,29.974498,32.537086
تونس,36.8002068,10.1857757
Lubumbashi,-11.6642316,27.4826264
بورسعيد,31.263235,32.305505
Monrovia,6.328034,-10.797788
Matola,-25.966917,32.466956
Bangui,4.3635118,18.5835913
Lusaka,-15.4163395,28.2818414
Durban,-29.861825,31.009909
Ouagadougou,12.3681873,-1.5270944
Bouaké,7.6906058,-5.0298408
الإسكندرية,31.1991806,29.8951716
N'Djaména انجمينا,12.1191543,15.0502758
Dar es-Salaam,-6.8160837,39.2803583
Mbuji-Mayi,-6.1258942,23.5998111
Ọ̀yọ́,7.8410537,3.9315363
Dakar,14.693425,-17.447938
Soweto,-26.2227778,27.89
Ogbomosho,8.133,4.25
Freetown,8.479004,-13.26795
Conakry,9.5170602,-13.6998434
Port Harcourt,4.7676576,7.0188527
Libreville,0.4086518,9.4418849
አዲስ አበባ / Addis Ababa,9.0358287,38.7524127
Agadir ⴰⴳⴰⴷⵉⵔ أگادیر,30.4205162,-9.5838532
Accra,5.5571096,-0.2012376
Maputo,-25.966213,32.56745
Djibouti جيبوتي,11.5936903,43.1472724
Ìlọrin,8.4963657,4.5480484
Kaduna,10.5182899,7.4359863
Oran ⵡⴰⵀⵔⴻⵏ وهران,35.7044415,-0.6502981
Nairobi,-1.2832533,36.8172449
Enugu,6.4499833,7.5000007
Maiduguri,11.8395375,13.1536214
Blantyre,-15.7862543,35.0035694
Antananarivo,-18.9100122,47.5255809
الخرطوم,15.5635972,32.5349123
الجيزة,29.9870753,31.2118063
Lagos,6.4550575,3.3941795
Örebro,59.2747287,15.2151181
Praia,14.9162811,-23.5095095
New Orleans,29.9759983,-90.0782127
Secunda,-26.516111,29.202778
Κως,36.8940286,27.2866636
Pärnu,58.3835136,24.5081751
Pamplona / Iruña,42.8181992,-1.6440089
Selkirk,50.146986,-96.880188
Warman,52.320232,-106.575623
Eskilstuna,59.3717379,16.5051474
Gliwice,50.294113,18.6657306
Santa Cruz de Tenerife,28.467178,-16.2507843
Siegen,50.8749804,8.0227233
Oulu,65.0118734,25.4716809
نظرآباد,35.9558897,50.6097443
ירושלים,31.7788242,35.2257626
Rijeka,45.3267976,14.442208
Kranj,46.2432913,14.3549353
Segovia,40.9481192,-4.1172101
Valladolid,41.6521328,-4.728562
Perth,-31.9558933,115.8605855
Las Palmas de Gran Canaria,28.1288694,-15.4349015
Safi ⴰⵙⴼⵉ آسفي,32.299424,-9.239533
Alice Springs,-23.6983884,133.8812885
Cairns,-16.9206657,145.7721854
Shreveport,32.5135356,-93.7477839
Ηράκλειο,35.33908,25.1332843
Ventspils,57.3903918,21.5635991
Ogre,56.8192045,24.6074393
Seattle,47.6038321,-122.330062
Chorzów,50.2978791,18.9544466
Red Deer,52.2690628,-113.8141464
Assen,52.9952273,6.560498
Brooks,50.571027,-111.893005
Medicine Hat,50.04303,-110.679016
Neuss,51.1981778,6.6916476
Klagenfurt,46.623943,14.3075976
Tallinn,59.4372155,24.7453688
Mbanza-Ngungu,-5.2500086,14.8666614
Boma,-5.85,13.05
Mbandaka,0.0470732,18.2564803
Bolobo,-2.166682,16.23333
Kisangani,0.5184021,25.2057292
Edmonton,53.5462055,-113.491241
Hamar,60.7947205,11.0680555
पोखरा,28.209538,83.991402
Bergisch Gladbach,50.9929303,7.1277379
Buxoro,39.7675529,64.4231326
Port Huron,42.9760854,-82.4333742
Jakarta,-6.175247,106.8270488
Janesville,42.6829765,-89.0226793
Madison,43.074761,-89.3837613
Маріуполь,47.0957648,37.5499621
Таганрог,47.2153657,38.9285216
Yorkton,51.212045,-102.461243
Lublin,51.250559,22.5701022
Albacete,38.9950921,-1.8559154
Fond du Lac,43.7748763,-88.4458033
Łódź,51.7687323,19.4569911
اردبیل,38.2515581,48.2972269
Braunschweig,52.2646577,10.5236066
Victoria,48.4283182,-123.3649533
Greenville,34.851354,-82.3984882
East London,-33.0191604,27.8998573
Pietermaritzburg,-29.6,30.3788889
Mbombela (Nelspruit),-25.481944,30.984722
Richards Bay,-28.7707857,32.0577775
Makhanda,-33.3070589,26.5272648
Recklinghausen,51.6143815,7.1978546
eMalahleni,-25.8763485,29.2010447
Daugavpils,55.8712267,26.5159337
Louis Trichardt,-23.038326,29.906665
Rustenburg,-25.665655,27.241448
Stavanger,58.9699675,5.7318101
Szeged,46.2546312,20.1486016
Celje,46.2293889,15.2616828
Maseru,-29.310054,27.478222
Botshabelo,-29.232412,26.733255
Paarl,-33.7310282,18.9642117
Newcastle,-27.762778,29.923889
Gaborone,-24.6581357,25.9088474
São Paulo,-23.5506507,-46.6333824
Taboão da Serra,-23.6121912,-46.7790539
São Bernardo do Campo,-23.7080345,-46.5506747
São Caetano do Sul,-23.6195923,-46.5688323
Kalgoorlie,-30.7464139,121.473223
Ourense,42.3436415,-7.8674242
Vantaa,60.2921321,25.0411832
Mildura,-34.195274,142.1503146
Girona,41.9793006,2.8199439
Québec,46.8137431,-71.2084061
Urdaneta,15.9759995,120.5668992
Tarlac City,15.4861218,120.5893473
Bendigo,-36.7590183,144.2826718
Tamale,9.4051992,-0.8423986
Tampere,61.4980214,23.7603118
Kuopio,62.8924601,27.6781839
Lahti,60.9826014,25.6613764
Joensuu,62.6005753,29.7622128
Kajaani,64.2240872,27.7334227
Kokkola,63.8391421,23.1336845
Kotka,60.4674228,26.9450844
Kouvola,60.8680928,26.7038517
Lappeenranta,61.0583713,28.1862742
Rauma,61.1289148,21.5039401
Seinäjoki,62.7954104,22.8442015
Hämeenlinna,60.9948584,24.46654
Rovaniemi,66.5025657,25.73122
Lohja,60.2526036,24.0684575
Salo,60.3846716,23.1286377
Mikkeli,61.6877956,27.2726569
Благоевград,42.0111077,23.0906457
Бургас,42.4936616,27.4721276
Добрич,43.5688397,27.8297415
Габрово,42.8710344,25.315798
Хасково,41.9345727,25.5556639
Ямбол,42.483935,26.5105553
Кърджали,41.643746,25.3722156
Кюстендил,42.2809956,22.6890196
Ловеч,43.1349971,24.715431
Монтана,43.4088984,23.2203193
Пазарджик,42.1884549,24.3318993
Перник,42.6092185,23.0309457
Плевен,43.409022,24.6180123
Разград,43.5258211,26.5230603
Силистра,44.118308,27.2600031
Сливен,42.6817633,26.3153528
Смолян,41.5768238,24.7010351
Търговище,43.251196,26.5727944
Варна,43.2073873,27.9166653
Велико Търново,43.0820584,25.6321312
Видин,43.9858809,22.8773117
Враца,43.2028209,23.548027
Wolfsburg,52.4205588,10.7861682
Abuja,9.0643305,7.4892974
拉萨市 ལྷ་ས།,29.6542054,91.1173015
دبي,25.2653471,55.2924914
Arendal,58.4600196,8.765288
Drammen,59.7436802,10.2043644
Fredrikstad,59.2133614,10.9361604
Gjøvik,60.796633,10.6934904
Kristiansand,58.14615,7.9957333
Larvik,59.053173,10.027182
Moss,59.4347974,10.6619753
Porsgrunn,59.140759,9.6562495
Sarpsborg,59.2838792,11.1096115
Sandefjord,59.1300112,10.2255602
Steinkjer,64.0151848,11.4956649
Skien,59.2091003,9.607544
Trondheim,63.4304475,10.3952118
Tønsberg,59.2677363,10.4080715
Ålesund,62.4711412,6.1551755
Wasilla,61.5824216,-149.442563
Harrisonburg,38.4493315,-78.8688833
Torrevieja,37.9775416,-0.6828446
Bydgoszcz,53.1219648,18.0002529
Słupsk,54.4649331,17.028073
Koszalin,54.19092,16.17707
بنها,30.4624974,31.184063
Ρέθυμνο,35.3676472,24.4736079
Χανιά,35.5120831,24.0191544
Nador ⵏⴰⴹⵓⵕ الناظور,35.1739922,-2.9281198
León,42.5989995,-5.5682413
Townsville,-19.2569391,146.8239537
Suwałki,54.0990636,22.9279363
Sopot,54.4447922,18.5684902
Elbląg,54.1558708,19.4044583
Las Vegas,36.1672559,-115.148516
Ostrołęka,53.0843135,21.5668607
Łomża,53.1750699,22.0727551
المنصورة,31.037566,31.38649
المحلة الكبرى,30.9723517,31.1683002
Biała Podlaska,52.0338399,23.1193948
Lugoj,45.6862542,21.9063162
Skierniewice,51.9568581,20.1430044
Radom,51.4022557,21.1541546
Tarnobrzeg,50.5715277,21.6704871
Siemianowice Śląskie,50.3052029,19.0275635
Katowice,50.2598987,19.0215852
Jaworzno,50.203439,19.2721559
Częstochowa,50.8120466,19.113213
Zabrze,50.3086154,18.7863749
Wałbrzych,50.7659054,16.2825424
Świętochłowice,50.2854551,18.9308513
Ruda Śląska,50.2858001,18.8747933
Trier,49.7596208,6.6441878
Reutlingen,48.4919508,9.2114144
평양시,39.0167979,125.7473609
Campinas,-22.9056391,-47.059564
Osasco,-23.5324859,-46.7916801
Piracicaba,-22.725165,-47.6493269
Jundiaí,-23.1887668,-46.884506
Americana,-22.7392463,-47.3306032
Sumaré,-22.8217964,-47.267105
Hortolândia,-22.8620175,-47.2164219
Limeira,-22.5615068,-47.401766
الخبر,26.3039999,50.1960237
Kecskemét,46.9073883,19.6917206
Békéscsaba,46.6798003,21.0985425
حلب,36.19924,37.1637253
남포시,38.7367448,125.4115285
Itu,-23.2637798,-47.2998462
Sorocaba,-23.5003451,-47.4582864
Santos,-23.9335988,-46.3286399
Olsztyn,53.7766839,20.476507
Mandurah,-32.5302495,115.7208782
Bunbury,-33.3267797,115.636698
Cluj-Napoca,46.769379,23.5899542
ساوه,35.0196331,50.3652364
دزفول,32.3780257,48.4032064
کرمانشاه,34.3239414,47.0735891
Plzeň,49.7477415,13.3775249
بابل,36.5452581,52.6846571
ساری,36.5659626,53.0586327
سبزوار,36.2134053,57.6808799
نیشابور,36.2105604,58.7922291
Cape Town,-33.928992,18.417396
شهرکرد,32.3257366,50.8497369
بیرجند,32.8633961,59.2177294
کرمان,30.2924085,57.0645647
سیرجان,29.4458687,55.6704717
بم,29.1059864,58.3565663
زابل,31.0277779,61.4948211
Burnie,-41.0523688,145.9064073
آبادان,30.3636097,48.2591475
بجنورد,37.4759752,57.3319881
بوشهر,28.9310786,50.8458443
خوی,38.5504343,44.95354
Bedford,44.7303901,-63.6582365
زنجان,36.6701767,48.5035293
Bastia,42.6993979,9.4509187
Panevėžys,55.7344985,24.3578055
Fier,40.7251118,19.5582079
Vlorë,40.4707602,19.4912716
원산시,39.1725946,127.4284243
Prince George,53.9128645,-122.7453699
Windhoek,-22.5776104,17.0772739
Walvis Bay,-22.9557607,14.5071125
Swakopmund,-22.6767841,14.5313988
Gobabis,-22.4495283,18.9724666
Upington,-28.456325,21.241867
Port Alberni,49.2343668,-124.8056517
Leme,-22.1844807,-47.385295
Rio Claro,-22.4100108,-47.5603933
Araras,-22.3569477,-47.3838889
Genève,46.2017559,6.1466014
Spartanburg,34.9498007,-81.9320157
Magdeburg,52.1315889,11.6399609
Itaquaquecetuba,-23.4754492,-46.3514033
Suzano,-23.5427842,-46.3108391
Guarujá,-23.9927768,-46.2558332
Barueri,-23.5112184,-46.8764612
Embu das Artes,-23.6495294,-46.8528497
Praia Grande,-24.008979,-46.4144939
Itapevi,-23.54888,-46.933889
Cotia,-23.603889,-46.918889
Сочи,43.5854823,39.723109
Holland,42.7876022,-86.1090828
Reșița,45.2890106,21.8877676
Caransebeș,45.4106108,22.2182232
Brad,46.1302414,22.7921521
València,39.4697065,-0.3763353
Pittsburgh,40.4416941,-79.9900861
Тула,54.1930321,37.61754
Назрань,43.2320774,44.7540128
Нижний Тагил,57.905149,59.9508466
Воркута,67.5035662,64.0627028
Brasília,-15.7934036,-47.8823172
Rio de Janeiro,-22.9110137,-43.2093727
Salvador,-12.9822499,-38.4812772
Brockville,44.5895925,-75.6843332
Rzeszów,50.0374531,22.0047174
Muqdisho مقديشو,2.0349312,45.3419183
Clarksville,36.5277607,-87.3588703
Edmundston,47.364409,-68.328094
Tarnów,50.0123784,20.9880739
Innsbruck,47.2654296,11.3927685
Salzburg,47.7981346,13.0464806
Tinghir ⵜⵉⵏⵖⵉⵔ تنغير,31.52133,-5.531164
Lausanne,46.5218269,6.6327025
Geraldton,-28.77035,114.6147159
Gainesville,29.6519684,-82.3249846
Baydhabo بيدوا,3.119951,43.644462
Vereeniging,-26.6747222,27.9261111
Xudur حودور,4.1237042,43.8915563
Marka مركا,1.7148358,44.7699326
Jowhar جوهر,2.7797296,45.5042168
Afgooye أفجوي,2.1460287,45.1190379
Qoryooley قوريولي,1.789663,44.530629
Kismaayo كيسمايو,-0.3602433,42.5409025
Tournai,50.6056458,3.3878179
Budva,42.2885656,18.8419505
Baardheere بااردىرآ,2.3372449,42.2849308
Jamaame جمامة,0.07222,42.75056
Jilib جيليب,0.4937927,42.7764134
Buurhakaba بورحكب,2.794785,44.0784549
Guelph,43.5460516,-80.2493276
Maribor,46.5576439,15.6455854
Geelong,-38.1493248,144.3598241
Ставрополь,45.0433245,41.9690934
Charleston,32.7884363,-79.9399309
Nashville,36.1622767,-86.7742984
المنامة,26.2235041,50.5822436
الجبيل,27.0006968,49.6532161
Донецьк,48.0158753,37.8013407
Bellingham,48.7544012,-122.478836
Queanbeyan,-35.3524518,149.2337634
Maastricht,50.8512438,5.6909768
Eindhoven,51.4392648,5.478633
Stevens Point,44.5229223,-89.574111
Boosaaso بوصاصو,11.27848,49.179952
Beledweyne بلد وين,4.7367735,45.2038881
Bu'aale بوأل,1.2516825,42.5775654
Gaalkacyo جالكعيو,6.769726,47.430826
Garoowe غاروي,8.406143,48.483195
Ceerigaabo عيرجابو,10.61806,47.37
Nuwara Eliya,6.9738863,80.767127
Rotterdam,51.9244424,4.47775
Port Hedland,-20.3111814,118.5801181
Nakuru,-0.2802724,36.0712048
Mombasa,-4.05052,39.667169
Meru,0.0499786,37.6500063
Malindi,-3.2165987,40.1165933
Machakos,-1.5212477,37.2660878
Kitui,-1.3666,38.0166
Kericho,-0.3666,35.2833
Kakamega,0.2833,34.75
Garissa,-0.4567099,39.6404713
Nowy Sącz,49.6249173,20.691346
Bellevue,47.6144219,-122.192337
Everett,47.9793437,-122.2127011
Vancouver,45.6306954,-122.6744557
Musina,-22.3453519,30.0268526
Spokane,47.6571934,-117.42351
Kegalle,7.2532006,80.3454132
Bar,42.0979745,19.0954528
Santiago,-33.4377756,-70.6504502
La Serena,-29.902631,-71.2520253
Coquimbo,-29.9531851,-71.3379503
Viña del Mar,-33.0244535,-71.5517636
Talca,-35.4265343,-71.6660322
El Paso,31.7550511,-106.488234
Colombo,6.9388614,79.8542005
Ajaccio,41.9263991,8.7376029
Ladysmith,-28.551944,29.778333
Cranbrook,49.5107477,-115.7672772
St. Albert,53.633239,-113.628845
Fernie,49.5041747,-115.062867
Sherwood Park,53.5256963,-113.296631
Kimberley,49.6850876,-115.9819477
Fort Saskatchewan,53.7128571,-113.214894
Nelson,49.494891,-117.290039
Lloydminster,53.279995,-110.00885
Spruce Grove,53.545204,-113.903503
Leduc,53.2607825,-113.5511681
Castlegar,49.316171,-117.663574
Cold Lake,54.46046,-110.192871
Camrose,53.013131,-112.840576
Vernon,50.2668671,-119.2718157
Mokopane,-24.183333,29.016667
Badalona,41.4493539,2.248254
Waterford,52.2609997,-7.1119081
Meadow Lake,54.13026,-108.435059
Estevan,49.1428076,-102.991075
Weyburn,49.6651238,-103.854034
Swift Current,50.2849138,-107.7984496
Humboldt,52.202009,-105.1230368
Moose Jaw,50.401515,-105.542908
North Battleford,52.776186,-108.300476
Prince Albert,53.201097,-105.748901
Langford,48.4497693,-123.5046662
Kitimat,54.0535577,-128.6540519
Vancouver,49.2608724,-123.113952
Burnaby,49.2433804,-122.972545
Quesnel,52.9794279,-122.493627
Parksville,49.3179514,-124.3117397
Port Moody,49.2821981,-122.8293554
Port Coquitlam,49.2621643,-122.780542
Nanaimo,49.163877,-123.938122
Abbotsford,49.0521162,-122.329479
Williams Lake,52.1292657,-122.1397259
Terrace,54.5172715,-128.599548
West Vancouver,49.3311208,-123.159479
Dauphin,51.153509,-100.04425
Winkler,49.187089,-97.937622
Winnipeg,49.8955367,-97.1384584
Morden,49.1927055,-98.1014567
Flin Flon,54.769801,-101.878967
Luxembourg,49.6112768,6.129799
Nelson,-41.2710849,173.2836756
San Juan,18.465299,-66.116666
Kingston,17.9712148,-76.7928128
Rotorua,-38.1381493,176.252922
York,39.9624588,-76.7277218
Broome,-17.9566909,122.2240181
Galveston,29.3056996,-94.7933252
Hanover,39.8005316,-76.9832568
Palmerston North,-40.356317,175.6112388
Napier,-39.4902099,176.917839
Hastings,-39.6417678,176.8430781
Timișoara,45.7538355,21.2257474
目黒区,35.62125,139.688014
Λάρισα,39.6383092,22.4160706
Κατερίνη,40.2713616,22.5087618
Θεσσαλονίκη,40.6403167,22.9352716
大阪市,34.6937569,135.5014539
札幌市,43.061936,141.3542924
Turda,46.5685214,23.7853643
Porirua,-41.1354217,174.8397824
Lower Hutt,-41.2125751,174.9057626
Rēzekne,56.506281,27.3306623
گلگت,35.9208102,74.314044
راولپنڈی,33.5914237,73.0535122
جلال آباد,34.430195,70.460128
Quito,-0.2201641,-78.5123274
Puno,-15.8405962,-70.0279512
Cuernavaca,18.9218274,-99.2342282
Cusco,-13.5170887,-71.9785356
Hobart,-42.8825088,147.3281233
Mount Gambier,-37.8301386,140.7842627
Sighișoara,46.2202037,24.7934483
Нови Сад,45.2551338,19.8451756
Armidale,-30.5144881,151.6656564
Boise,43.6166163,-116.200886
Nampa,43.5737361,-116.559631
Meridian,43.6086295,-116.392326
Mahikeng,-25.863611,25.658611
Klerksdorp,-26.8625383,26.6656814
Câmpina,45.1256956,25.7348044
Ploiești,44.9417468,26.0236504
Whanganui,-39.9324904,175.0519306
New Plymouth,-39.0579941,174.0806474
Krugersdorp,-26.095556,27.775556
Białystok,53.132398,23.1591679
Allentown,40.6022059,-75.4712794
Колпино,59.748444,30.604479
Tauranga,-37.6859006,176.167505
Concord,43.207178,-71.537476
Светлый,54.673355,20.131153
Советск,55.0809688,21.8882673
Gisborne,-38.661326,178.0206487
Fort Collins,40.5871782,-105.0770113
's-Hertogenbosch,51.6889387,5.303116
Миколаїв,46.9758615,31.9939666
Kigali,-1.950851,30.061507
Београд,44.8178131,20.4568974
Hartford,41.764582,-72.6908547
桃園市,24.9929995,121.3010003
高雄市,22.6203348,120.3120375
新北市,25.011997,121.4656619
臺中市,24.163162,120.6478282
嘉義市,23.4811089,120.4535412
新竹市,24.8066333,120.9686833
Buzău,45.1490064,26.8306557
Bujumbura,-3.3638125,29.3675028
Goma,-1.6665685,29.225652
Hamilton,-37.7878809,175.281788
گوجرانوالہ,32.1525312,74.1933745
Erie,42.1294712,-80.0852695
Maryborough,-25.537583,152.7019182
Orillia,44.6092059,-79.4175587
Moratuwa,6.7746821,79.8826095
Зрењанин,45.3802683,20.3907614
Firenze,43.7698712,11.2555757
Arezzo,43.4628957,11.8781675
Grosseto,42.7597261,11.1137389
Massa,44.0359323,10.1395519
Pistoia,43.9336213,10.9174238
Prato,43.880598,11.0969262
Siena,43.3185536,11.3316533
New York,40.7127281,-74.0060152
Πάτρα,38.246242,21.7350847
Ciudad de México,19.4326296,-99.1331785
Milano,45.4641943,9.1896346
Brescia,45.5398022,10.2200214
Cremona,45.1334796,10.0248716
Pavia,45.1860043,9.1546375
Varese,45.817549,8.8263532
Monza,45.5834418,9.2735257
Khémisset ⵅⴻⵎⵉⵙⵙⴻⵜ الخميسات,33.830287,-6.072605
Taza ⵜⴰⵣⴰ تازة,34.230155,-4.010104
Torino,45.0677551,7.6824892
Alessandria,44.9130438,8.6154872
Asti,44.900542,8.2068876
Biella,45.5664109,8.0542758
Cuneo,44.389633,7.5479007
Novara,45.4464036,8.619655
Vercelli,45.3251557,8.4227666
Miskolc,48.1030643,20.7900429
Győr,47.687609,17.6346815
Nyíregyháza,47.9557802,21.7167982
Trento,46.0664228,11.1257601
Bolzano - Bozen,46.4984781,11.3547399
Venezia,45.4371908,12.3345898
Rovigo,45.0698166,11.78882
Treviso,45.6658505,12.2455414
Verona,45.4384958,10.9924122
Vicenza,45.5488306,11.5478825
Jaén,37.7728858,-3.7883289
Montpellier,43.6112422,3.8767337
Mataró,41.5398348,2.4448926
جہلم,32.9247256,73.719388
گوجر خان,33.2543205,73.3065712
Trieste,45.6496485,13.7772781
Pordenone,45.9562503,12.6597197
Udine,46.0634632,13.2358377
Genova,44.40726,8.9338624
La Spezia,44.1033871,9.8217022
काठमाडौं,27.708317,85.3205817
Palermo,38.1112268,13.3524434
Agrigento,37.3122991,13.57465
Caltanissetta,37.4899412,14.0631618
Catania,37.5023612,15.0873718
Messina,38.1937571,15.5542082
Ragusa,36.9219828,14.7213455
Trapani,38.0173961,12.5160225
Reggio Calabria,38.1035389,15.6397556
Catanzaro,38.9076353,16.5960465
Cosenza,39.3099931,16.2501929
Crotone,39.0806223,17.127196
Potenza,40.6384046,15.8022077
Campobasso,41.5597935,14.6602725
Perugia,43.1119613,12.3890104
Terni,42.5641417,12.6405466
Bari,41.1257843,16.8620293
Brindisi,40.6375408,17.9454957
Lecce,40.3570373,18.1718482
Taranto,40.4712427,17.2432278
Andria,41.2275731,16.2954806
Trani,41.275088,16.4162585
Hervey Bay,-25.2985784,152.8535216
Avellino,40.9141958,14.7888764
Benevento,41.1295587,14.7824639
Caserta,41.0820827,14.334708
Salerno,40.6803601,14.7594542
Giugliano in Campania,40.9283217,14.2011232
Owen Sound,44.5678105,-80.9430094
Forlì,44.2227278,12.041273
Modena,44.6458885,10.9255707
Parma,44.8013678,10.3280833
Ravenna,44.4161414,12.2017617
Reggio Emilia,44.6978389,10.6304971
Rimini,44.0593886,12.5684371
Ancona,43.6170137,13.5170982
Ascoli Piceno,42.8546185,13.5755038
L'Aquila,42.3489203,13.3979672
Chieti,42.3446529,14.1659738
Teramo,42.6612893,13.6983524
Whangārei,-35.7275268,174.3194202
ጎንደር / Gonder,12.610368,37.466766
ባሕር-ዳር / Bahir Dar,11.5949663,37.3882251
Roma,41.8933203,12.4829321
Latina,41.467299,12.9037518
Viterbo,42.4168441,12.1051148
Casteddu/Cagliari,39.2171994,9.113311
Châu Đốc,10.7101815,105.1188675
Hà Nội,21.0283334,105.854041
الدبة,18.043988,30.95119
دنقلا,19.1728506,30.4731589
Székesfehérvár,47.1910169,18.410811
Rexburg,43.8235163,-111.787022
Липецк,52.6041877,39.5936899
Bukama,-9.2020365,25.8525231
Воткинск,57.052505,53.990612
Logan City,-27.6424132,153.1131037
Palo Alto,37.4443293,-122.1598465
Mountain View,37.3893889,-122.0832101
کوئٹہ,30.1957677,67.0172447
Buenos Aires,-34.6037181,-58.38153
Kalispell,48.202158,-114.315321
Bozeman,45.6794293,-111.044047
Pocatello,42.8620287,-112.450627
العين,24.2248697,55.7452211
Jyväskylä,62.2417066,25.7495727
Bunia,1.5620529,30.2478844
Butembo,0.1249694,29.2919545
Vernal,40.4556825,-109.528474
Puerto Montt,-41.471798,-72.9395915
Vigo,42.2376602,-8.7247205
Sherbrooke,45.403271,-71.889038
Budapest,47.4978789,19.0402383
Новороссийск,44.7239578,37.7690711
Dodoma,-6.1791181,35.7468174
Livingstone,-17.853135,25.861429
نوابشاہ,26.2452915,68.4040229
سکھر,27.6961883,68.8588754
Tamanrasset ⵜⴰⵎⴻⵏⵔⴰⵙⴻⵜ تمنراست,22.7859372,5.5291395
Tombouctou,16.7719091,-3.0087272
مورو,26.6636199,68.0024421
خیرپور,27.5268953,68.7593983
پنو عاقل,27.855824,69.1127479
صادق آباد,28.3086664,70.1283004
Gao,16.2788129,-0.0412392
Sikasso,11.3165531,-5.6777526
کوٹری,25.3635325,68.3068896
شندي,16.6884963,33.432286
عطبرة,17.690719,33.98073
رفاعة,14.7677692,33.3659991
Florianópolis,-27.5973002,-48.5496098
Saint-Hyacinthe,45.627484,-72.940636
گوادر,25.1479816,62.3254553
Granby,45.3990409,-72.721834
Обнинск,55.0951738,36.611913
نوشہرہ,34.0155606,71.981283
چارسدہ,34.1461506,71.7337464
Butte,46.0131505,-112.536508
Missoula,46.8701049,-113.995267
Ferrol,43.4846862,-8.233162
Billings,45.7874957,-108.49607
Great Falls,47.5048851,-111.29189
Pembroke,45.8260909,-77.113541
Lebanon,40.3429683,-76.4233816
Нальчик,43.4769604,43.5966578
الموصل,36.3415843,43.1291386
București,44.4361414,26.1027202
Santa Barbara,34.4221319,-119.702667
Juba,4.8459246,31.5959173
کندهار,31.6205738,65.7157573
Атырау,47.1067183,51.9138976
Türkmenbaşy,40.0053169,52.9928838
Jacareí,-23.3050682,-45.9723075
Angra dos Reis,-23.0063966,-44.316326
Pindamonhangaba,-22.9364,-45.4622602
Caraguatatuba,-23.62028,-45.41306
Lancaster,40.03813,-76.3056686
دھۆک,36.8542598,42.9924528
Apopka,28.678013,-81.511398
Orlando,28.5421109,-81.3790304
Slobozia,44.5635999,27.3618477
وادي حلفا,21.8005,31.350737
Galați,45.4338215,28.0549395
Berkeley,37.8708393,-122.272863
Sanford,28.8117345,-81.2680223
Ниш,43.3211301,21.8959232
Энгельс,51.5013775,46.1233093
Reading,40.335345,-75.9279495
Mount Hagen,-5.858784,144.2316365
Lae,-6.7301976,147.0008109
Sept-Îles,50.2109579,-66.3790642
Baie-Comeau,49.2118373,-68.1801406
Dryden,49.785698,-92.835846
Callao,-12.0522626,-77.1391133
Vatra Dornei,47.3469264,25.3557638
مریدکے,31.8010863,74.2540999
Puerto La Cruz,10.2028617,-64.6307626
Tecuci,45.8457816,27.4290798
Adjud,46.100503,27.181015
Joliette,46.0239798,-73.4419936
Hội An,15.8795863,108.3319406
Ужгород,48.6223731,22.3022572
Киров,58.6035661,49.6666241
Orange,-33.2820463,149.0971567
Wagga Wagga,-35.115,147.3677778
Broken Hill,-31.965,141.4511111
นครสวรรค์,15.705783,100.1330046
ایبٹ آباد,34.1436136,73.2132747
مانسہرہ,34.3286855,73.1993125
Cessnock,-32.8316667,151.3511111
Aiud,46.3108893,23.7188181
Mediaș,46.1625212,24.3473855
Dubbo,-32.2478964,148.6026502
Tamworth,-31.0900743,150.9290159
Lismore,-28.8077608,153.2791883
Port Vila,-17.7414972,168.3150163
Nassau,25.0782266,-77.3383438
چکوال,32.932827,72.8629763
ຫຼວງພະບາງ,19.8887438,102.135898
Târgoviște,44.9267709,25.462816
Gosford,-33.4250175,151.3417318
Orăștie,45.8367637,23.1958453
Câmpia Turzii,46.5471807,23.8869669
Târnăveni,46.3295278,24.2804126
Giurgiu,43.8959058,25.9658111
Salonta,46.8024771,21.6594011
Ensenada,31.8658887,-116.602983
Toplița,46.9241232,25.352455
Gheorgheni,46.7213467,25.5998915
ປາກຊັນ,18.3923993,103.6592885
ວຽງຈັນ,17.9640988,102.6133707
Podgorica,42.4415238,19.2621081
Lleida,41.6147605,0.6267842
Des Moines,41.5868654,-93.6249494
Moga,30.8223408,75.1730967
Ρόδος,36.4436302,28.2282311
Drobeta-Turnu Severin,44.6257835,22.6531975
Pitești,44.8572343,24.8719422
ເມືອງໄຊ,20.6930134,101.9853678
Opole,50.6668184,17.9236408
Baia Mare,47.6565584,23.5719843
Gherla,47.0287702,23.9077402
Sighetu Marmației,47.9283242,23.8915583
Carei,47.6829338,22.4695102
Suceava,47.647001,26.2522599
Bistrița,47.1327012,24.4963949
Sfântu Gheorghe,45.8659935,25.7865367
Tulcea,45.177518,28.8016348
Marghita,47.34662,22.3414987
Săcele,45.616651,25.6910299
Curtea de Argeș,45.1469341,24.6779826
Făgăraș,45.8449433,24.9703224
Ir-Rabat,36.0428907,14.2398479
Hunedoara,45.7575221,22.9073792
Iași,47.1615598,27.5837814
Chișinău,47.0245117,28.8322923
Salzgitter,52.1503721,10.3593147
Zalău,47.1819416,23.0562143
Saint John,45.278752,-66.058044
Գյումրի,40.7852085,43.8416095
Երևան,40.1777112,44.5126233
Κοζάνη,40.3007259,21.7883119
Έδεσσα,40.8008523,22.0503508
Γιαννιτσά,40.79304,22.411477
Φλώρινα,40.7829027,21.4138858
القامشلي,37.0402529,41.2328836
Chico,39.7284945,-121.8374777
Τρίκαλα,39.5560869,21.7678844
Καρδίτσα,39.3660304,21.9287519
Băilești,44.0230929,23.3450079
Botoșani,47.7450706,26.6599858
Urziceni,44.717002,26.6324066
Piatra Neamț,46.9319894,26.3695046
Roman,46.9248758,26.9281768
Câmpulung,45.2697704,25.0438643
ຫຼວງນ້ຳທາ,21.0072205,101.4076361
ຜົ້ງສາລີ,21.6834928,102.1056616
ປາກເຊ,15.1201461,105.8043971
ເຊກອງ,15.3484551,106.7220009
ທ່າແຂກ,17.3946183,104.8064526
ໂພນສະຫວັນ,19.45189,103.206607
ອັດຕະປື,14.8122882,106.8278077
Κιλκίς,40.9935874,22.8741455
Caracal,44.1123292,24.3463095
Μεσολόγγι,38.3686353,21.4283544
Βόλος,39.3624833,22.9401864
Καστοριά,40.5216297,21.2636522
Σέρρες,41.0910711,23.5498031
Καβάλα,40.9369224,24.4122766
Ξάνθη,41.13805,24.8864089
Beiuș,46.6667533,22.3527085
Orșova,44.7234689,22.3982754
Târgu Jiu,45.0422947,23.2728118
Motru,44.8011015,22.9678763
Slatina,44.4299971,24.3631837
Αλεξανδρούπολη,40.845666,25.8778814
Ιωάννινα,39.6639818,20.8522784
Πρέβεζα,38.9571673,20.7516209
Lupeni,45.3552327,23.2157411
Vulcan,45.3748642,23.2940874
Codlea,45.6924431,25.4490362
Kajang,2.9948437,101.7896595
Râmnicu Vâlcea,45.1031731,24.3647209
Drăgășani,44.6592011,24.2643412
Alexandria,43.9702236,25.3288462
Roșiorii de Vede,44.1083489,24.9952094
Turnu Măgurele,43.7518306,24.8691717
Moreni,44.9830676,25.6453554
נהריה,33.006306,35.0945579
Daly City,37.6904826,-122.47267
Roseville,38.7521235,-121.2880059
Yuba City,39.1404477,-121.6169108
Eureka,40.7906871,-124.1673746
Susanville,40.4162842,-120.653006
Redding,40.5863563,-122.391675
সাভার,23.8477,90.2587
Râmnicu Sărat,45.3854458,27.0417011
Miercurea Ciuc,46.3614042,25.8026675
Târgu Secuiesc,46.0007042,26.1373615
Călărași,44.1961646,27.3313233
Shah Alam,3.0739429,101.5185278
Долгопрудный,55.9341491,37.5142417
Химки,55.8917293,37.4396994
Medgidia,44.2443001,28.269625
Caxias do Sul,-29.1685045,-51.1796385
Bento Gonçalves,-29.1654014,-51.5197627
Canoas,-29.9216045,-51.1799525
Gold Coast,-28.0023731,153.4145987
Mindelo,16.8874145,-24.9863842
Рівне,50.6196175,26.2513165
Луцьк,50.7450733,25.320078
Satu Mare,47.7891763,22.8725598
Anderson,34.5068601,-82.6506264
Crescent City,41.7538193,-124.1966461
Рыбинск,58.050373,38.834637
Кострома,57.7679158,40.9269141
Иваново,56.9984452,40.9737394
Chambersburg,39.9375112,-77.6612586
Abéché أبشي,13.8280295,20.8283652
Oum Hadjer أم هاجر,13.2937546,19.6889527
Ati أتي,13.2125691,18.3396857
Ngoura نكورا,12.8786326,16.4497186
أدري Adré,13.4664563,22.1977187
Prizren,42.2130151,20.7363339
Ketchikan,55.3430696,-131.6466819
Waipahu,21.3866667,-158.009166
Pearl City,21.4001231,-157.969428
Fairbanks,64.837845,-147.716675
Juneau,58.3019496,-134.419734
Kodiak,57.79,-152.407222
Aiea,21.3822222,-157.9336111
Kāneʻohe,21.418555,-157.804184
Mililani,21.4508308,-158.0095783
Kenai,60.5544444,-151.258333
Kailua,21.393623,-157.743759
Anchorage,61.2163129,-149.894852
Kapolei,21.3340079,-158.077849
Davis,38.5435526,-121.739005
Thousand Oaks,34.1705609,-118.8375937
Kingman,35.189443,-114.0530065
Santa Rosa,38.4404925,-122.7141049
Lewiston,46.4195913,-117.0216144
Salt Lake City,40.7596198,-111.886797
Riverside,33.9824949,-117.374238
Rancho Cucamonga,34.1033192,-117.575173
Ogden,41.2230048,-111.9738429
Tracy,37.7385507,-121.4201395
Coeur d'Alene,47.6742994,-116.7811531
Tempe,33.4255117,-111.940016
Helena,46.5927425,-112.036277
Victorville,34.5361067,-117.2911565
Gilbert,33.3527632,-111.789037
Santa Clara,37.3541132,-121.955174
Lake Havasu City,34.4775296,-114.3379972
Modesto,37.6390972,-120.996878
Prescott,34.539984,-112.468812
Klamath Falls,42.224867,-121.78167
South San Francisco,37.6535403,-122.4168664
Mesquite,36.8035642,-114.067141
Springfield,44.0462362,-123.0220289
Carson,33.8322043,-118.2517547
Hillsboro,45.5228939,-122.989827
Corona,33.8752945,-117.566444
Carson City,39.1698022,-119.7575628
Moreno Valley,33.937517,-117.2305944
Layton,41.0751048,-111.9741925
Oxnard,34.1976308,-119.180381
Alameda,37.7652076,-122.241635
Inglewood,33.9562003,-118.353132
San Clemente,33.4270275,-117.6124179
Orange,33.7872568,-117.850308
St. George,37.104153,-113.584131
Delano,35.7688425,-119.247053
Redwood City,37.4863239,-122.232523
Oceanside,33.1958696,-117.379483
Vacaville,38.3565773,-121.9877444
Torrance,33.8371392,-118.3413606
Oregon City,45.3573429,-122.606758
San Luis Obispo,35.2827525,-120.659615
El Cajon,32.7947731,-116.962526
Calabasas,34.1446643,-118.644097
Temecula,33.4946353,-117.147366
Bend,44.0581728,-121.3153096
Simi Valley,34.2677404,-118.7538071
Henderson,36.0301134,-114.9826194
Fremont,37.5482697,-121.988571
Turlock,37.4946568,-120.8465941
Bullhead City,35.1477774,-114.568298
Show Low,34.2542084,-110.029832
Porterville,36.06523,-119.0167679
Scottsdale,33.4942189,-111.926018
Fairfield,38.2493581,-122.039966
Corvallis,44.5645659,-123.2620435
Winnemucca,40.972415,-117.7347619
Jackson,43.479965,-110.761815
Fernley,39.6075249,-119.2508406
Fontana,34.0922947,-117.43433
Cedar City,37.6774238,-113.061827
Petaluma,38.2325829,-122.636465
Salem,44.9391565,-123.033121
West Valley City,40.6967254,-111.986821
Pasco,46.2306739,-119.0921
Albany,44.6365071,-123.1059324
San Bernardino,34.1081621,-117.28946
Lancaster,34.6981064,-118.1366153
Reno,39.5261206,-119.8126581
Hazleton,40.9548956,-75.9769572
Lodi,38.1343744,-121.2735432
Ventura,34.2783355,-119.293174
Sacramento,38.5810606,-121.493895
Vallejo,38.1040864,-122.2566367
Poway,32.9628234,-117.035864
Elko,40.83269,-115.7630942
Napa,38.2971367,-122.2855293
Stockton,37.9577016,-121.290779
Boulder City,35.9787638,-114.8337739
Sunnyvale,37.3688301,-122.036349
Tucson,32.2228765,-110.974847
Phoenix,33.4484367,-112.074141
San Rafael,37.9747795,-122.5316686
Hayward,37.6688205,-122.080796
El Centro,32.792,-115.563051
Monterey,36.600256,-121.8946388
Ontario,34.065846,-117.64843
Hanford,36.3274502,-119.6456844
Cupertino,37.3228934,-122.0322895
Vista,33.2021284,-117.2424787
Mesa,33.4151005,-111.831455
Folsom,38.6779591,-121.176058
Provo,40.2337289,-111.6587085
Carlsbad,33.1580933,-117.3505966
Elk Grove,38.4087993,-121.3716178
North Las Vegas,36.2005843,-115.121584
Glendale,33.5386858,-112.185994
Pahrump,36.2087301,-115.984614
Surprise,33.629247,-112.3681428
Pomona,34.0553813,-117.7517496
Escondido,33.1216751,-117.0814849
Sparks,39.5404679,-119.7487235
Concord,37.9768525,-122.0335624
West Covina,34.0686208,-117.9389526
Sonoma,38.2919984,-122.4578582
Downey,33.9404441,-118.1292846
Santa Clarita,34.4127963,-118.5538088
Milpitas,37.4332273,-121.8989248
Sierra Vista,31.5545973,-110.2997756
Ely,39.2480588,-114.891718
Gresham,45.4979108,-122.4329
Casa Grande,32.8772834,-111.7536818
Logan,41.7313063,-111.834914
Santa Maria,34.9531295,-120.435857
Page,36.9148305,-111.457294
Indio,33.7192808,-116.2188054
Tooele,40.5307776,-112.29828
Antioch,38.0049214,-121.805789
Kennewick,46.2087066,-119.119919
Evanston,41.2682462,-110.963758
Visalia,36.3302284,-119.292058
Oakland,37.8044557,-122.271356
Wenatchee,47.4234599,-120.310349
Richmond,37.9357576,-122.347748
Yuma,32.6926543,-114.6275386
Chula Vista,32.6400541,-117.084195
Mission Viejo,33.5965685,-117.659405
Grand Forks,47.9252042,-97.0306741
Dubuque,42.5006243,-90.6647985
Dodge City,37.7527982,-100.0170787
Hobbs,32.707667,-103.1311314
Hastings,40.5861322,-98.3898883
Pasadena,29.6910753,-95.2092076
Stillwater,36.1156306,-97.0585717
Victoria,28.7997547,-97.0064246
Lafayette,30.2262187,-92.0178202
Springfield,37.2081729,-93.2922715
Sterling,40.6255415,-103.207709
Emporia,38.4040054,-96.181623
Burlington,40.8126922,-91.1020205
Muscatine,41.4246132,-91.0436508
Farmington,36.7291152,-108.205445
Mason City,43.1524574,-93.2017941
Clovis,34.405472,-103.2050709
Lexington,40.7788486,-99.7414869
Quincy,39.9356016,-91.4098727
Columbus,41.4292988,-97.3581439
Mesquite,32.7666103,-96.599472
West Des Moines,41.5644476,-93.7594059
Norfolk,42.0283379,-97.4169964
Torrington,42.062465,-104.184394
Moab,38.5738096,-109.546214
Colorado Springs,38.8339578,-104.825348
Albuquerque,35.0841034,-106.650985
Memphis,35.1460249,-90.0517638
International Falls,48.601033,-93.4105904
Mankato,44.1634663,-93.9993505
Midland,31.9973662,-102.077948
Laramie,41.311367,-105.591101
Lubbock,33.5855677,-101.8470215
Saint Paul,44.9497487,-93.0931028
Southaven,34.9873822,-90.0034862
Killeen,31.1171441,-97.727796
North Platte,41.1238873,-100.7654232
Cedar Falls,42.5361805,-92.447758
Lawrence,38.9719137,-95.2359403
Port Arthur,29.8716577,-93.9332302
Urbandale,41.6274511,-93.7380243
Independence,39.0924792,-94.4137923
Nacogdoches,31.6037322,-94.6559702
Thornton,39.8695516,-104.985181
Sugar Land,29.6196787,-95.6349463
Rogers,36.3330154,-94.1166283
Hutchinson,38.0608444,-97.9297743
Leavenworth,39.3113257,-94.922759
Yankton,42.8712938,-97.3967011
Overland Park,38.9742502,-94.6851702
Eagle Pass,28.7083999,-100.503941
Beatrice,40.266429,-96.747369
Edmond,35.6571367,-97.4649038
Warrensburg,38.7624373,-93.7409596
Greeley,40.4233142,-104.7091322
Lawton,34.6086854,-98.3903305
Brandon,43.5909294,-96.5874544
Moline,41.5058344,-90.5136642
Centennial,39.579155,-104.8769227
Rock Island,41.5095446,-90.5792031
Kirksville,40.1948848,-92.5833939
Galesburg,40.9475652,-90.3712169
Russellville,35.2784173,-93.1337856
Bryan,30.6743643,-96.3699632
Havre,48.5536972,-109.677802
Richardson,32.9481789,-96.7297206
Denver,39.7392364,-104.984862
Manhattan,39.1836082,-96.5716694
Lincoln,40.8088861,-96.7077751
Glenwood Springs,39.5466381,-107.3246941
Texarkana,33.4254259,-94.0430937
Little Rock,34.7465071,-92.2896267
Abilene,32.44645,-99.7475905
Chippewa Falls,44.9371325,-91.3932118
Trinidad,37.169397,-104.500541
Jonesboro,35.8272257,-90.6949871
San Angelo,31.4649685,-100.4405094
Blue Springs,39.017316,-94.282265
Ardmore,34.1729273,-97.1309119
College Station,30.6183939,-96.3455991
Eau Claire,44.811349,-91.4984941
Omaha,41.2587459,-95.9383758
Aberdeen,45.4649805,-98.487813
Steamboat Springs,40.4848003,-106.831735
Hannibal,39.7082498,-91.3587413
Allen,33.1031744,-96.6705503
Ada,34.7743383,-96.6783651
Minneapolis,44.9772995,-93.2654692
Lee's Summit,38.9107156,-94.3821295
Odessa,31.8457149,-102.367687
Arlington,32.7355816,-97.1071186
Beaumont,30.0860459,-94.1018461
Springdale,36.1867442,-94.1288142
Waco,31.5491899,-97.1474628
Lamar,38.0872306,-102.620749
Garden City,37.9716898,-100.8726618
Fayetteville,36.0625843,-94.1574328
Fargo,46.877229,-96.789821
O’Fallon,38.7902503,-90.7033292
Frisco,33.1505998,-96.8238183
Saint Joseph,39.7686055,-94.8466322
Sedalia,38.7098314,-93.2295515
Jackson,32.2998686,-90.1830408
Cedar Rapids,41.9758872,-91.6704053
Grand Island,40.924271,-98.338685
Brownsville,25.9015688,-97.4984005
Gillette,44.290635,-105.501876
Rock Springs,41.5860557,-109.2194544
Westminster,39.8366528,-105.0372046
Brookings,44.311461,-96.79844
Cheyenne,41.139981,-104.820246
Corpus Christi,27.7635302,-97.4033191
Tahlequah;ᏓᎵᏆ,35.91537,-94.969956
McAllen,26.204114,-98.2300605
Longview,32.5007031,-94.74049
Olathe,38.8838856,-94.81887
Silver City,32.7711825,-108.2764164
La Crosse,43.8122836,-91.2514355
Joplin,37.0841838,-94.5133385
Grand Junction,39.0672568,-108.56448
Roswell,33.3943282,-104.5229518
Muskogee,35.7478769,-95.3696909
Casper,42.8501191,-106.325138
Wichita Falls,33.9004572,-98.5020777
Monroe,32.5102427,-92.1032411
Hot Springs,34.5038393,-93.0552437
Columbia,38.951883,-92.3337366
Rolla,37.9509324,-91.7708076
Harlingen,26.1907543,-97.6960599
Fort Dodge,42.5044017,-94.1910044
Alexandria,31.3119463,-92.4453558
Lenexa,38.9697458,-94.7845837
Lakewood,39.7085736,-105.0846694
Minot,48.23251,-101.296273
Sioux Falls,43.5488256,-96.7307737
Bentonville,36.3728538,-94.2088172
Lake Charles,30.2305095,-93.2169807
Taos,36.4072377,-105.573284
Santa Fe,35.6876096,-105.938456
Aurora,39.7405111,-104.830994
Council Bluffs,41.258841,-95.8519484
Castle Rock,39.3722552,-104.858682
Tyler,32.3512601,-95.3010624
Jefferson City,38.577359,-92.1724265
Davenport,41.5235808,-90.5770967
Edinburg,26.3013982,-98.1624501
Ottumwa,41.0195659,-92.4116886
Iowa City,41.6612561,-91.5299106
Pueblo,38.2544472,-104.609141
Salina,38.8402805,-97.6114237
Pierre,44.3683644,-100.351136
Shawnee / Shânîheki,35.3272928,-96.9253004
Sheridan,44.797194,-106.956179
Lufkin,31.3386242,-94.7288558
Carlsbad,32.4257456,-104.237612
Marion,42.0329753,-91.5987335
Liberty,39.246479,-94.419079
Montrose,38.4781927,-107.876277
Williston,48.1465457,-103.621814
Wichita,37.6922361,-97.3375448
Carrollton,32.9537349,-96.8902816
Conway,35.0891932,-92.4398402
Vermillion,42.7795273,-96.929101
Garland,32.912624,-96.6388833
Kearney,40.699478,-99.081858
Cody,44.5263107,-109.056392
Greenville,33.4111051,-91.0635857
Temple,31.098207,-97.3427847
Enid,36.3967623,-97.8791341
Ankeny,41.7320796,-93.605092
Clinton,41.8502821,-90.1877485
Del Rio,29.357515,-100.8987707
Grand Prairie,32.7459645,-96.9977846
Saint Charles,38.783855,-90.481677
Norman,35.2225717,-97.4394816
Belton,38.8108097,-94.5313502
Los Alamos,35.88137,-106.298959
Lewisville,33.046233,-96.994174
Scottsbluff,41.862302,-103.6627088
Ames,42.0267567,-93.6170448
Alamogordo,32.8998822,-105.9602081
Gladstone,39.2214765,-94.5719748
New Braunfels,29.7028266,-98.1257348
Loveland,40.3977612,-105.07498
Baton Rouge,30.4494155,-91.1869659
Branson,36.6440772,-93.2169256
Alamosa,37.469877,-105.8696
Mitchell,43.70953,-98.025379
Pine Bluff,34.2157064,-92.0140402
Watertown,44.899211,-97.115289
Dickinson,46.8791756,-102.7896242
Boulder,40.0149856,-105.270545
Las Cruces,32.3140354,-106.779807
Bartlesville,36.7421089,-95.9528877
Bellevue,41.1365122,-95.8937398
Fremont,41.4338363,-96.4960449
Rochester,44.0234387,-92.4630182
Saint Cloud,45.5616075,-94.1642004
Bettendorf,41.5253792,-90.5098639
Bismarck,46.808327,-100.783739
Spearfish,44.490817,-103.85937
Longmont,40.1672117,-105.101928
Fort Smith,35.3880338,-94.4265011
Shawnee,39.0229714,-94.7145415
Huron,44.36308,-98.214388
Barcelona,41.3828939,2.1774322
Tarragona,41.1172364,1.2546057
Reus,41.1555564,1.1076133
Grand Rapids,42.9632425,-85.6678639
Indianapolis,39.7683331,-86.1583502
Evansville,37.970495,-87.5715641
Louisville,38.2542376,-85.759407
Muskegon,43.2341813,-86.2483921
Huntsville,34.729847,-86.5859011
Wyoming,42.9132581,-85.7057035
Chicago,41.8755616,-87.6244212
Columbus,39.2014405,-85.9213796
South Bend,41.6833813,-86.2500066
Urbana,40.1117174,-88.207301
Auburn,32.6098566,-85.4807825
Cape Girardeau,37.3034933,-89.5230357
Belleville,38.5135805,-89.9841627
Muncie,40.1936892,-85.3865271
Goshen,41.5850394,-85.8344491
Chattanooga,35.0457219,-85.3094883
Cookeville,36.1623886,-85.4997057
Bowling Green,36.9903199,-86.4436018
Florence,34.79981,-87.677251
Birmingham,33.5206824,-86.8024326
Valparaiso,41.4672552,-87.0604487
Battle Creek,42.3192548,-85.1824269
Waukegan,42.3636331,-87.8447938
Jackson,35.6144446,-88.8177418
Joliet,41.5263603,-88.0840212
Racine,42.7260523,-87.7825242
Marquette,46.5434914,-87.396433
Anderson,40.1053196,-85.6802541
Champaign,40.1164841,-88.2430932
Tuscaloosa,33.2095614,-87.5675258
Gary,41.6020962,-87.3370646
Fishers,39.9555928,-86.0138729
Lafayette,40.4191229,-86.8919011
Tupelo,34.2576067,-88.7033859
Hopkinsville,36.8657651,-87.4889532
Dyersburg,36.0346393,-89.3857496
Pensacola,30.421309,-87.2169149
Bloomington,39.1670396,-86.5342881
Naperville,41.7728699,-88.1479278
Elgin,42.03726,-88.2810994
Rome,34.257038,-85.1646726
Wausau,44.9596017,-89.6298239
Biloxi,30.4007626,-88.8893818
Panama City,30.1586518,-85.6602936
Greenwood,39.6136987,-86.1095429
Mobile,30.6913462,-88.0437509
Waukesha,43.0116784,-88.2314813
Paducah,37.0833893,-88.6000478
Meridian,32.3643098,-88.703656
Elizabethtown,37.693952,-85.8591285
Columbus,33.4956744,-88.4272627
Kenosha,42.5846773,-87.8212263
Noblesville,40.0455918,-86.0085955
Murfreesboro,35.8460396,-86.3921096
Gadsden,34.0128323,-86.0030251
Dothan,31.2237285,-85.3934375
Mishawaka,41.6611642,-86.1807031
Carbondale,37.7274692,-89.216655
Jeffersonville,38.2770227,-85.7371604
Kokomo,40.4864444,-86.1336351
Terre Haute,39.4667025,-87.4139119
Decatur,39.8454163,-88.9524151
Carmel,39.9784186,-86.1283681
Fort Wayne,41.0799898,-85.1386015
Hattiesburg,31.3271189,-89.2903392
Peoria,40.6938609,-89.5891008
Rockford,42.2713945,-89.093966
Margaret,33.6862124,-86.4749838
Sheboygan,43.7508284,-87.71453
Gulfport,30.3674198,-89.0928155
Edwardsville,38.8114364,-89.953157
Owensboro,37.7742152,-87.1133304
Elmhurst,41.8994745,-87.9403418
Columbia,35.6148165,-87.0338464
Michigan City,41.7075394,-86.8950297
Elkhart,41.6819935,-85.9766671
Franklin,35.925206,-86.8689419
Kalamazoo,42.291707,-85.5872286
Montgomery,32.3669656,-86.3006485
Traverse City,44.7606481,-85.6165976
Aurora,41.7571701,-88.3147539
Smyrna,33.883887,-84.5147454
Brandon,27.937801,-82.2859247
Canton,40.7985464,-81.3749508
Kingsport,36.550238,-82.5594293
Richmond,39.8286897,-84.8898521
Atlanta,33.7489924,-84.3902644
Simpsonville,34.7370639,-82.2542834
Akron,41.083064,-81.518485
Miramar,25.9873137,-80.2322706
Morristown,36.2139814,-83.2948923
Dearborn,42.3222599,-83.1763145
New Philadelphia,40.4897871,-81.4456706
Sarasota,27.3365805,-82.5308545
Midland,43.6155825,-84.2472117
Sandy Springs,33.9242688,-84.3785379
Rochester Hills,42.6583661,-83.1499322
Johnson City,36.3134398,-82.3534728
Meadville,41.641445,-80.151449
Winston-Salem,36.0998131,-80.2440518
Warner Robins,32.6200973,-83.606568
Novi,42.48059,-83.4754913
Beckley,37.7781702,-81.1881557
Covington,39.0831712,-84.5107548
Brunswick,31.1499528,-81.4914894
Bluefield,37.2698395,-81.2223195
Mansfield,40.75839,-82.5154471
Warren,41.2367955,-80.8190423
Springfield,39.9234046,-83.810138
Cincinnati,39.1014537,-84.5124602
Bristol,36.5945034,-82.1885212
Xenia,39.6847822,-83.9296526
Pompano Beach,26.2378597,-80.1247667
Saginaw,43.4200387,-83.9490365
Parkland,26.3100794,-80.23727
Statesville,35.7826363,-80.8872959
Sunrise,26.1666888,-80.2787573
Newark,40.0581205,-82.4012643
Johns Creek,34.0181557,-84.190196
Tampa,27.9477595,-82.458444
Greer,34.9381361,-82.2272119
Jackson,42.2465036,-84.4016963
Columbus,39.9622601,-83.0007065
Clearwater,27.9658533,-82.8001026
Macon,32.8406946,-83.6324022
Fort Myers,26.640628,-81.8723084
Melbourne,28.106471,-80.6371513
Middletown,39.516644,-84.4041725
Aiken,33.5616173,-81.7224579
Lakeland,28.0394654,-81.9498042
Fort Lauderdale,26.1223084,-80.1433786
East Lansing,42.7320307,-84.4721678
Clermont,28.5551912,-81.7669488
Columbia,34.0003117,-81.0331309
Deerfield Beach,26.318342,-80.0996306
Ocala,29.1871986,-82.1400923
Wheeling,40.0639616,-80.7209149
Columbus,32.4610708,-84.9880449
Palm Bay,27.9946969,-80.6366144
Blacksburg,37.2296566,-80.4136767
Coral Springs,26.271192,-80.2706044
Tallahassee,30.4380832,-84.2809332
Hickory,35.7333312,-81.3442915
Bartow,27.8963791,-81.8431567
New Smyrna Beach,29.0258132,-80.9271271
Homestead,25.4718946,-80.4759905
Hialeah,25.8575963,-80.2781057
Roswell,34.02332,-84.360022
Charlotte,35.2272086,-80.8430827
Maryville,35.7564719,-83.9704593
Albany,31.5782062,-84.1556809
Kannapolis,35.4874708,-80.621438
Fort Pierce,27.4467056,-80.3256056
Πειραιάς,37.9431594,23.6470593
Hollywood,26.0112014,-80.1494901
North Augusta,33.4943487,-81.9705909
Monroe,34.9854275,-80.5495112
Weirton,40.4002396,-80.5899788
Ashland,38.4784144,-82.6379387
Pembroke Pines,26.0061943,-80.2872086
Salisbury,35.6709727,-80.4742261
Sumter,33.9204354,-80.3414693
Rock Hill,34.9248667,-81.0250784
Warren,42.4932575,-83.0062746
Orangeburg,33.4918203,-80.8556476
Athens,39.3289242,-82.1012479
Miami Beach,25.7929198,-80.1353006
Saint Petersburg,27.7700475,-82.6359078
Pontiac,42.6389216,-83.2910468
Lorain,41.4673238,-82.1781904
Medina,41.1383878,-81.8637474
Bristol,36.5959685,-82.1885009
West Palm Beach,26.715364,-80.0532942
Miami,25.7741728,-80.19362
Leesburg,28.810823,-81.8778582
Valdosta,30.8327022,-83.2784851
Athens,33.9597677,-83.376398
Zanesville,39.9401426,-82.005019
Sterling Heights,42.5803122,-83.0302033
Troy,42.6055893,-83.1499304
North Port,27.044224,-82.2359254
Gastonia,35.2622654,-81.1838186
Richmond,37.7478572,-84.2946539
Port Charlotte,26.9761707,-82.0906448
Lawrenceville,33.9566391,-83.9890066
Clarksburg,39.2806451,-80.3445341
Gainesville,34.2978794,-83.8240663
Weston,26.1003392,-80.399513
Frankfort,38.2009055,-84.8732836
Port Saint Lucie,27.2939333,-80.3503283
Bradenton,27.4989278,-82.5748194
Boone,36.2187873,-81.684004
Key West,24.5548262,-81.8020722
Palm Coast,29.5541432,-81.2207673
Greenwood,34.1954001,-82.1617883
Kent,41.1513108,-81.3578047
Kendall,25.6792695,-80.3172743
Charleston,38.3505995,-81.6332812
Cape Coral,26.5625742,-81.9438802
High Point,35.9556924,-80.0053176
Dalton,34.7691867,-84.9702475
Ypsilanti,42.2410562,-83.613055
Royal Oak,42.4894801,-83.1446485
Lexington,38.0464066,-84.4970393
Jacksonville,30.3321838,-81.655651
Cleveland,35.1595182,-84.8766115
Lima,40.7399785,-84.105006
Concord,35.4094178,-80.5800049
Cuyahoga Falls,41.1362729,-81.4828123
Riviera Beach,26.784343,-80.0650293
Augusta,33.4709714,-81.9748429
Wooster,40.7980976,-81.9397733
Lancaster,39.7136754,-82.5993294
Lenoir,35.9140196,-81.5389849
Ashtabula,41.865054,-80.789809
Chillicothe,39.3331197,-82.9824019
Daytona Beach,29.2108147,-81.0228331
Delaware,40.2986724,-83.067965
Hamilton,39.3995067,-84.5613428
Boca Raton,26.3586885,-80.0830984
New Castle,40.9999202,-80.3471856
Huntington,38.4192496,-82.445154
Dayton,39.7589478,-84.1916069
Oak Ridge,36.0103562,-84.2696449
Pikeville,37.4792672,-82.5187629
Salem,37.293198,-80.0556773
Sandusky,41.4561002,-82.7115813
Savannah,32.0790074,-81.0921335
Naples,26.1421976,-81.7942944
Asheville,35.595363,-82.5508407
Τρίπολη,37.5102911,22.3724241
Ciudad Real,38.9854201,-3.9285138
Leszno,51.8436498,16.5744141
São Luís,-2.5295265,-44.2963942
Гевгелија,41.1388664,22.5033192
Электросталь,55.7903785,38.4405711
Ногинск,55.8553511,38.4411898
Burlington,43.3248924,-79.7966835
Brampton,43.685832,-79.7599366
Mississauga,43.5896231,-79.6443879
Fayetteville,35.0525759,-78.878292
Wake Forest,35.9803138,-78.5103731
Elkins,38.925927,-79.8466552
Staunton,38.1495947,-79.072557
Goldsboro,35.3848841,-77.9927651
Jacksonville,34.7494749,-77.4208221
Scranton,41.4086874,-75.6621294
Tonawanda,43.020679,-78.878383
Indiana,40.622825,-79.1533097
Hampton,37.0300969,-76.3452057
Glen Burnie,39.1648,-76.6249437
Bowie,38.9424464,-76.7301718
Columbia,39.2156213,-76.8582049
Fairfax,38.8462236,-77.3063733
Buffalo,42.8867166,-78.8783922
Annapolis,38.9786401,-76.492786
Martinsburg,39.4562528,-77.9639604
Bethesda,38.9846816,-77.0942447
Asheboro,35.7079146,-79.8136446
Roanoke,37.270973,-79.9414313
Watertown,43.9747838,-75.9107565
Morgantown,39.6296809,-79.9559437
Utica,43.1009031,-75.2326641
Altoona,40.518681,-78.394736
Ogdensburg,44.694285,-75.486374
Johnstown,40.3267407,-78.9219698
New Bern,35.1084931,-77.0441143
Greenville,35.613224,-77.3724593
Bel Air,39.5355063,-76.3490396
Laurel,39.0984317,-76.8485094
Hyattsville,38.9529442,-76.9408647
College Park,38.980666,-76.9369189
Williamsburg,37.2708788,-76.7074042
Washington,38.8950368,-77.0365427
Suffolk,36.7282096,-76.5835703
Easton,38.7744952,-76.0763065
Rockville,39.0817985,-77.1516844
Elmira,42.0897965,-76.8077338
Greensboro,36.0726355,-79.7919754
State College,40.7944504,-77.8616386
Culpeper,38.4733823,-77.9961275
Portsmouth,36.8320081,-76.297699
Kinston,35.2626635,-77.5816353
Fredericksburg,38.3031837,-77.4605399
Wilkes-Barre,41.2464824,-75.8817316
Petersburg,37.227928,-77.4019268
Hopewell,37.3043154,-77.2872001
Wilmington,34.2257282,-77.9447107
Camden,39.9448402,-75.1198911
Hagerstown,39.6430455,-77.7191081
Silver Spring,38.9959461,-77.0276231
Leesburg,39.1154506,-77.5645607
North Charleston,32.8546197,-79.9748103
Manassas,38.7509488,-77.4752667
Cumberland,39.6526498,-78.762383
Chesapeake,36.7183708,-76.2466798
Roanoke Rapids,36.4558016,-77.6573514
Jamestown,42.0965167,-79.2380322
Dundalk,39.2574114,-76.5236745
Elizabeth City,36.3010192,-76.2203699
Lynchburg,37.4137536,-79.1422464
Syracuse,43.0481221,-76.1474244
Charlottesville,38.029306,-78.4766781
Dover,39.158168,-75.5243682
Sanford,35.4798757,-79.1802994
Danville,36.5879877,-79.3916713
Westminster,39.5751717,-76.9959168
Arlington,38.8903961,-77.0841585
Gaithersburg,39.1399187,-77.1929215
Durham,35.996653,-78.9018053
North Tonawanda,43.0407742,-78.8660527
Newport News,36.9775016,-76.42977
Newark,39.6828358,-75.7515682
Wilmington,39.7459468,-75.546589
Raleigh,35.7803977,-78.6390989
Burlington,36.0956918,-79.4377991
Conway,33.8360035,-79.0478143
Ithaca,42.4396039,-76.4968019
Lexington Park,38.2658897,-76.4522844
Wilson,35.7212689,-77.9155395
Binghamton,42.098698,-75.9125187
Winchester,39.1852184,-78.1652404
Westfield,42.1205411,-72.7489158
Atlantic City,39.3642852,-74.4229351
Schenectady,42.8142432,-73.9395687
Chicopee,42.1487691,-72.6071119
Lowell,42.6414437,-71.3085329
Fitchburg,42.5854371,-71.8046023
Framingham,42.2773177,-71.4165905
Brockton,42.0834335,-71.0183787
Levittown,40.7259621,-73.5144766
Rochester,43.3050631,-70.9753629
Danbury,41.394817,-73.4540111
Saco,43.5009176,-70.4428286
Boston,42.3554334,-71.060511
Haverhill,42.7777829,-71.0767724
Hempstead,40.7092836,-73.6230362
Nashua,42.7656251,-71.4677032
Troy,42.7284117,-73.6917878
Providence,41.8239891,-71.4128343
Danvers,42.566751,-70.9368313
Torrington,41.8006523,-73.1212214
Waterville,44.5520105,-69.6317121
Presque Isle,46.6812216,-68.0154578
Central Falls,41.8873726,-71.3876472
Elizabeth,40.6639916,-74.2107006
Newark,40.735657,-74.1723667
Pawtucket,41.8789531,-71.3821203
Middletown,41.5623178,-72.6509061
New Haven,41.3082138,-72.9250518
Cranston,41.779588,-71.4366813
Springfield,42.1018764,-72.5886727
Northampton,42.3178989,-72.6311006
Holyoke,42.2071434,-72.60765
Glens Falls,43.309941,-73.644447
Lewiston,44.1004515,-70.2150294
Lynn,42.466763,-70.9494939
New Brunswick,40.4862174,-74.4518173
Belfast,44.4261711,-69.0065596
Saratoga Springs,43.0821793,-73.7853915
Barre,44.1969042,-72.5007458
Sanford,43.438878,-70.7739832
Newport,41.4899827,-71.3137707
Montpelier,44.2602244,-72.5750364
Marlborough,42.3459271,-71.5522874
Jersey City,40.7215682,-74.047455
Portsmouth,43.0702223,-70.7548621
Cambridge,42.3655767,-71.1040018
Toms River,39.9526791,-74.1968257
New London,41.3556187,-72.0997804
Old Town,44.9354209,-68.6464233
Bath,43.9133661,-69.8140298
Brentwood,40.7812093,-73.2462273
Chelsea,42.3917638,-71.0328284
White Plains,41.0339862,-73.7629097
Lawrence,42.7070354,-71.1631137
Waltham,42.3756401,-71.2358004
Laconia,43.5278546,-71.470351
Attleboro,41.9438129,-71.2806515
New Rochelle,40.9115386,-73.7826363
Yonkers,40.9312099,-73.8987469
Rockland,44.1048463,-69.109139
Woonsocket,42.0028761,-71.5147839
Worcester,42.2625621,-71.8018877
Brewer,44.794713,-68.7661547
Waterbury,41.5538091,-73.0438362
Taunton,41.9019257,-71.0931485
Meriden,41.5381535,-72.8070435
Eastport,44.9050394,-66.9846372
Pittsfield,42.451302,-73.260018
Salem,42.5195292,-70.8967226
Claremont,43.3727579,-72.3382504
Amesbury,42.8579536,-70.9300921
Auburn,44.0979903,-70.2312137
Paterson,40.9167654,-74.171811
East Providence,41.8194081,-71.376257
Burlington,44.4761601,-73.212906
Easthampton,42.2708804,-72.6719579
Greenfield,42.5876342,-72.6002068
Westbrook,43.6763036,-70.3663874
Keene,42.933597,-72.2784264
Melrose,42.4564323,-71.064182
Biddeford,43.4925843,-70.4533844
Medford,42.4184296,-71.1061639
Augusta,44.3169922,-69.7734278
Trenton,40.2203074,-74.7659
Somerville,42.3875968,-71.0994968
Malden,42.4268484,-71.0683741
Leominster,42.5267443,-71.7614891
Newton,42.3370414,-71.2092214
Bangor,44.8016255,-68.7713289
Woburn,42.4792618,-71.1522766
Plymouth,41.9583799,-70.6673851
Dover,43.1981117,-70.8739761
Rutland,43.6084792,-72.9724768
Norwich,41.5243537,-72.0759008
Mount Vernon,40.9125085,-73.8386504
Warwick,41.6992717,-71.4586114
Stamford,41.0534302,-73.5387341
New Bedford,41.6362152,-70.934205
Hallowell,44.2856241,-69.7902799
Portland,43.6573605,-70.2586618
Manchester,42.9956397,-71.4547891
Caribou,46.8606301,-68.0116807
Gloucester,42.6159286,-70.6619888
Methuen,42.7262016,-71.1908924
Newburyport,42.8125913,-70.8772751
Peabody,42.5278731,-70.9286609
Gardner,42.5763523,-71.9952737
New Britain,41.6612104,-72.7795419
Franklin,43.4442432,-71.6472988
Gardiner,44.2296662,-69.7731429
Bridgeport,41.1792695,-73.1887863
South Portland,43.6414716,-70.2408811
Beverly,42.5486559,-70.8784256
Milford,42.1413353,-71.5192019
Ellsworth,44.5414596,-68.4243599
Lakewood Township,40.0978929,-74.2176435
Revere,42.4084302,-71.0119948
Quincy,42.2509914,-71.0037374
Norwalk,41.1175966,-73.4078968
ბათუმი,41.6509502,41.6360085
Пятигорск,44.039775,43.0706669
Ростов-на-Дону,47.2216548,39.7096061
Κόρινθος,37.9385413,22.9273768
Σπάρτη,37.0744494,22.4301778
Magé,-22.6604221,-43.0426162
Томск,56.4887526,84.9523434
Δράμα,41.1499443,24.1468286
Itaboraí,-22.7496231,-42.8557428
São Gonçalo,-22.8219014,-43.0309252
Antipolo,14.5871972,121.1759246
Burgos,42.343926,-3.696977
Segamat,2.5124036,102.8137391
Скопје,41.9961816,21.4319213
Bytom,50.3470387,18.9231857
Naxçıvan,39.217497,45.4069671
Bathurst,-33.4166378,149.5804943
Niterói,-22.8884,-43.1147
Русе,43.8480413,25.9542057
Granada,11.9303801,-85.9535897
Managua,12.1544035,-86.2737642
Rivas,11.4389392,-85.8287394
Ambala,30.3843674,76.770421
Салехард,66.5375387,66.6157469
เชียงใหม่,18.7882778,98.9858802
Upper Hutt,-41.1240674,175.0699589
Красноярск,56.0090968,92.8725147
Курган,55.4409357,65.3421169
Gawler,-34.5973311,138.7448933
Lugo,43.0118437,-7.5565749
Punta Arenas,-53.1625688,-70.907822
ფოთი,42.141614,41.6748028
Şəmkir,40.8357964,46.0246224
Gəncə,40.6798083,46.3597178
Liberia,10.6333336,-85.4362722
Zalaegerszeg,46.8415803,16.8456316
旭川市,43.770625,142.3649743
Tovuz,40.992341,45.6163371
რუსთავი,41.54309,45.0112804
Limón,9.9932401,-83.0297915
Лесковац,42.9951304,21.9464271
Врање,42.5558337,21.8976673
Струмица,41.4390081,22.6374139
Череповец,59.128696,37.916389
Ballarat,-37.5623013,143.8605645
Sosnowiec,50.2780834,19.1342944
竹原市,34.3418377,132.9070476
呉市,34.2484488,132.5652498
Горно-Алтайск,51.957775,85.963653
Черкесск,44.2285229,42.048257
Йошкар-Ола,56.6326996,47.8975847
Майкоп,44.6062079,40.104053
Махачкала,42.9830241,47.5048717
Элиста,46.306999,44.270187
Сыктывкар,61.6685237,50.8352024
Саранск,54.18671,45.18383
Якутск,62.0274078,129.7319787
Кызыл,51.719079,94.4300679
Jönköping,57.7825634,14.165719
Петропавловск-Камчатский,53.0199838,158.6471356
Владимир,56.1288899,40.4075203
Южно-Сахалинск,46.9574273,142.727438
Тамбов,52.7216164,41.4523988
Нарьян-Мар,67.6380175,53.0071044
Ханты-Мансийск,61.0034448,69.0190006
Биробиджан,48.7881668,132.9282082
Набережные Челны,55.7419774,52.399207
Волжский,48.7862021,44.7519454
Сургут,61.254032,73.3964
Комсомольск-на-Амуре,50.5497277,137.0099189
Стерлитамак,53.632374,55.952259
Братск,56.1517085,101.6334907
Дзержинск,56.2382157,43.4617405
Шахты,47.7119167,40.2115699
Ангарск,52.5443167,103.8882138
Нижневартовск,60.9339411,76.5814274
Прокопьевск,53.8879117,86.7492072
Норильск,69.3444054,88.2096151
Армавир,44.9993585,41.1294061
معرة النعمان,35.6470788,36.6777062
Златоуст,55.1674213,59.6792625
Каменск-Уральский,56.415451,61.917797
Новочеркасск,47.41066,40.101986
Королёв,55.9190049,37.8150443
Находка,42.8246489,132.8926
Волгодонск,47.5182668,42.1525935
Березники,59.4084171,56.8036958
Рубцовск,51.5276264,81.2176174
Люберцы,55.6783142,37.89377
Миасс,55.0505685,60.1087125
Уссурийск,43.7972447,131.9520752
Ковров,56.374603,41.311676
Коломна,55.0938743,38.7670121
Первоуральск,56.9051246,59.9431941
Одинцово,55.678223,37.2668096
Невинномысск,44.6245814,41.9475941
Кисловодск,43.9128743,42.7192186
Димитровград,54.2188995,49.6038982
Новочебоксарск,56.1140023,47.4870341
Серпухов,54.9155247,37.4195533
Хасавюрт,43.246916,46.5855184
Камышин,50.0808422,45.4048003
Муром,55.5738,42.0447
Орехово-Зуево,55.8083278,38.9790038
Нефтекамск,56.0884031,54.2478094
Новошахтинск,47.7558886,39.935987
Ачинск,56.2694846,90.4953964
Елец,52.6219865,38.5003298
Сергиев Посад,56.3153284,38.1359898
Нефтеюганск,61.090309,72.6101
Новокуйбышевск,53.099243,49.948364
Ноябрьск,63.2002917,75.4475807
Северск,56.603161,84.881012
Арзамас,55.3987879,43.8210933
Дербент,42.057858,48.2887648
Артём,43.3570377,132.1853629
Жуковский,55.5972801,38.1199863
Тобольск,58.1998048,68.2512924
اللاذقية,35.5200185,35.7781044
طرطوس,34.8936225,35.885167
الفلوجة,33.3532137,43.7875674
Καλαμάτα,37.0372714,22.110707
Πύργος,37.6722103,21.4392124
Бабруйск,53.1449683,29.2281209
Manaus,-3.1316333,-59.9825041
אשדוד,31.7977314,34.6529922
חולון,32.0193121,34.7804076
אור יהודה,32.0270045,34.8629898
ראשון לציון,31.9635712,34.8101149
Naga,13.6240122,123.1850318
Banting,2.8027574,101.4956767
San José,9.9325427,-84.0795782
San Salvador,13.6989939,-89.1914249
Elyria,41.3673191,-82.1073583
Libertad,-34.7003704,-58.6834869
Lomas de Zamora,-34.7572582,-58.4026638
Luján,-34.5661734,-59.1152598
Mar del Plata,-37.9977225,-57.5482703
Mendoza,-32.8894155,-68.8446177
Merlo,-34.6604988,-58.7321695
Monte Grande,-34.8192731,-58.4664257
Morón,-34.6510527,-58.6217416
Neuquén,-38.9519679,-68.0591741
Paraná,-31.7330145,-60.5298511
Pergamino,-33.897495,-60.575046
Posadas,-27.3664824,-55.894295
Puerto Madryn,-42.7729674,-65.0366104
Quilmes,-34.7303025,-58.268868
Rafael Castillo,-34.6996518,-58.6308765
Ramos Mejía,-34.6481661,-58.5622869
Río Cuarto,-33.1237585,-64.3489782
Río Gallegos,-51.6232352,-69.2158996
Rivadavia,-31.5304707,-68.5945111
Rosario,-32.9593609,-60.6617024
Salta,-24.7892946,-65.4103194
San Carlos de Bariloche,-41.1334421,-71.3098425
San Fernando del Valle de Catamarca,-28.4689063,-65.7790719
San Juan,-31.5370909,-68.5251802
San Justo,-34.6774186,-58.5607837
San Miguel de Tucumán,-26.8303703,-65.2038133
San Nicolás de los Arroyos,-33.3277089,-60.2165909
San Rafael,-34.6126025,-68.330514
San Salvador de Jujuy,-24.1852569,-65.2994789
Santa Fe,-31.6186951,-60.7019561
Santa Rosa,-36.6203503,-64.2905765
Santiago del Estero,-27.7877148,-64.2595062
Tandil,-37.3282887,-59.1356957
Temperley,-34.7758816,-58.3971199
Ushuaia,-54.8069332,-68.3073246
Vicente López,-34.5244484,-58.5036282
Viedma,-40.8084274,-62.994722
Villa Madero,-34.6884434,-58.4999411
San José,-34.7540252,-58.3540105
Zárate,-34.0954713,-59.0245097
Bermejo,-22.7327163,-64.3427757
Avellaneda,-34.6648394,-58.3628061
Bahía Blanca,-38.7176522,-62.2654871
Banfield,-34.7437455,-58.3960811
Berazategui,-34.7632677,-58.2116604
Bernal,-34.716571,-58.2977925
Castelar,-34.6555638,-58.6425128
Concordia,-31.3972539,-58.0173305
Berisso,-34.8688565,-57.8828667
Formosa,-26.1852983,-58.1744976
González Catán,-34.769249,-58.6480318
Gualeguaychú,-33.0078585,-58.5103466
Isidro Casanova,-34.7047876,-58.5861609
José C. Paz,-34.511906,-58.7776777
Junín,-34.5934412,-60.9461678
La Banda,-27.7357077,-64.2434402
Gregorio de Laferrere,-34.7504785,-58.5846362
La Rioja,-29.4127411,-66.8558795
Tuguegarao,17.6118858,121.7300377
Catbalogan,11.7753199,124.8829549
Cabuyao,14.2795538,121.1235712
Baliwag,14.9542259,120.9009172
Vigan,17.5755487,120.3872632
Imus,14.4290116,120.9365911
Bislig,8.2130815,126.3156173
Guihulngan,10.1195972,123.273871
Ilagan,17.1486341,121.8886466
Manila,14.5906346,120.9799964
Passi,11.1173503,122.6468706
Ligao,13.2402789,123.5365227
Meycauayan,14.7345008,120.9571635
Cabanatuan,15.4905045,120.9684264
Muñoz,15.7135413,120.9039451
Gapan,15.3122806,120.9479433
Tayabas,14.0263471,121.5918364
General Trias,14.3861637,120.8802798
Parañaque,14.5008116,120.9915327
Taguig,14.5270538,121.0744942
Dasmariñas,14.3270819,120.9370871
Mandaluyong,14.5774392,121.0338973
Bayugan,8.7145642,125.7481892
Bacoor,14.458816,120.959579
San Juan,14.6044363,121.0299469
Santa Rosa,14.3146042,121.1137466
Malaybalay,8.1550421,125.1305726
Naga,10.2084724,123.7590963
Carmona,14.3134763,121.0573969
Tanjay,9.5164507,123.1566353
Koronadal,6.5004067,124.8435427
Maasin,10.1325061,124.8385147
Kabankalan,9.9889153,122.8134802
Mati,6.9514062,126.2167274
Malabon,14.6578504,120.9511261
Victorias,10.9013412,123.0714943
Calapan,13.4145513,121.179543
Tacurong,6.6884368,124.6786576
Santo Tomas,14.1078443,121.1453304
Kidapawan,7.0095784,125.0905037
El Salvador,8.5585108,124.5264381
Batac,18.0555035,120.5645243
Sipalay,9.7491266,122.4040602
Borongan,11.6085788,125.435328
Sagay,10.8960681,123.4154617
Las Piñas,14.4809012,120.9817861
Masbate City,12.3710899,123.6239223
Balanga,14.6795669,120.5409693
Marikina,14.6331084,121.0993541
Calamba,14.2060217,121.1556496
Tandag,9.0799833,126.1974606
Navotas,14.6571862,120.9479692
Tanauan,14.0853283,121.1528222
Santiago,16.6915963,121.5478637
Escalante,10.8412679,123.4992627
Calaca,13.9304212,120.8130856
Samal,7.0780265,125.7120437
Isabela,6.7052252,121.9710765
Muntinlupa,14.3892634,121.0449101
Candon,17.1929894,120.4483993
San Jose del Monte,14.81026,121.04739
San Fernando,16.6162676,120.317104
Lamitan,6.6580883,122.1369469
Alaminos,16.1553857,119.9792201
Himamaylan,10.0992841,122.870539
Tabuk,17.4136195,121.4440137
Biñan,14.3388259,121.0841826
Bayawan,9.3661533,122.804837
Sorsogon City,12.9707848,124.0052543
Elx / Elche,38.2653307,-0.6988391
Fredericton,45.963233,-66.6432356
Moncton,46.097995,-64.80011
Miramichi,47.032695,-65.494995
Bathurst,47.626529,-65.654297
Torit,4.4134473,32.5682244
George Town,5.4141619,100.3287352
Butterworth,5.4082015,100.3697208
Kasama,-10.2044875,31.1877186
Curitiba,-25.4295963,-49.2712724
ลำปาง,18.2899489,99.4958526
Trois-Rivières,46.3432325,-72.5428485
Kota Bharu,6.12584,102.2399785
Klang,3.0448394,101.4447363
松山市,33.8395188,132.7653521
الهفوف,25.3696585,49.5865224
Վանաձոր,40.8112384,44.4851821
Saint-Jean-sur-Richelieu,45.3056879,-73.2533401
Alcalá de Henares,40.4818396,-3.3644973
Brantford,43.1408157,-80.2631733
Leer,8.3040834,30.1411544
كادوقلي‎,11.0085934,29.7155751
Malakal,9.5388487,31.6584168
Natal,-5.805398,-35.2080905
Fortaleza,-3.7304512,-38.5217989
Isparta,37.7709545,30.5512931
مظفر آباد,34.3734751,73.4702407
Mexicali,32.6405247,-115.474899
Curicó,-34.985368,-71.2393705
Chillán,-36.6066616,-72.1033194
San Felipe,-32.7506976,-70.7252018
La Ligua,-32.4496375,-71.2316695
Rengo,-34.4088744,-70.8616583
Los Andes,-32.8336867,-70.5981609
Angol,-37.798787,-72.7086097
Osorno,-40.5732371,-73.1358145
Los Ángeles,-37.4707455,-72.351686
Quillota,-32.879997,-71.2473555
Melipilla,-33.6855134,-71.2145796
Iquique,-20.2140657,-70.1524646
San Fernando,-34.583791,-70.989122
Rancagua,-34.170249,-70.7407427
Cauquenes,-35.9671286,-72.315427
Tocopilla,-22.0887189,-70.1960657
Colina,-33.202472,-70.6749147
Coyhaique,-45.5711804,-72.0684863
Linares,-35.8452905,-71.5977173
Calama,-22.4623917,-68.9272181
Villa Alemana,-33.0441903,-71.3725464
Puerto Aysén,-45.4068167,-72.6976787
Coronel,-37.0164712,-73.1561953
Quilpué,-33.0498135,-71.4415282
Antofagasta,-23.6463741,-70.3980033
Vallenar,-28.5750438,-70.7616398
Ovalle,-30.6030819,-71.2029894
Copiapó,-27.3664685,-70.3322753
Lebu,-37.6102279,-73.656055
Түркістан,43.3019457,68.2703698
Apeldoorn,52.2156457,5.9639485
ქუთაისი,42.2716078,42.7054475
თელავი,41.918292,45.4746493
Comodoro Rivadavia,-45.8632024,-67.4752615
الدقم,19.6204464,57.6350887
صلالة,17.0174945,54.1010923
مسقط,23.5882019,58.3829448
Mingəçevir,40.7646918,47.052389
Şəki,41.2033609,47.1802623
Yevlax,40.6111615,47.1479948
Yei,4.0941656,30.6757097
Bərdə,40.3812457,47.1246287
Sabirabad,40.008006,48.475032
Torrejón de Ardoz,40.4587767,-3.4793343
Port Moresby,-9.4743301,147.1599504
Neftçala,39.3790532,49.248607
Biləsuvar,39.4561281,48.5465607
Cəlilabad,39.2103933,48.5050593
Yardımlı,38.9074487,48.2423036
Lənkəran,38.7537311,48.8539286
İmişli,39.8716243,48.0594743
پارس آباد,39.6461735,47.918551
Castelló de la Plana,39.9860347,-0.0377354
کرج,35.8224892,50.9904681
Aweil,8.7693352,27.3962085
Leeuwarden,53.2005936,5.7918548
Den Haag,52.0799838,4.3113461
Utrecht,52.0907006,5.1215634
Leiden,52.1594747,4.4908843
Dordrecht,51.814429,4.6692438
Zwolle,52.5089759,6.0943765
St. John's,47.5614705,-52.7126162
Rouyn-Noranda,48.2420524,-79.0205378
Wau,7.7001398,27.9909335
Bor,6.2108741,31.5614397
الزبير,30.3917664,47.7027042
አዳማ / Adama,8.5410261,39.2705461
Zürich,47.3744489,8.5410422
Bottrop,51.521581,6.929204
Wiesbaden,50.0820384,8.2416556
Flensburg,54.7833021,9.4333264
Bielefeld,52.0191005,8.531007
Erfurt,50.9777974,11.0287364
Aachen,50.776351,6.083862
Pforzheim,48.8908846,8.7029532
Krefeld,51.3331205,6.5623343
Pelotas,-31.7699736,-52.3410161
Gelsenkirchen,51.5110321,7.0960124
Duisburg,51.434999,6.759562
Osnabrück,52.2719595,8.047635
Heidelberg,49.4093582,8.694724
Mannheim,49.4892913,8.4673098
Mönchengladbach,51.1947131,6.4353792
Remscheid,51.1798706,7.1943544
Offenbach am Main,50.1055002,8.7610698
Solingen,51.1721629,7.0845893
Darmstadt,49.872775,8.651177
Jena,50.9281717,11.5879359
Wuppertal,51.264018,7.1780374
Freiburg im Breisgau,47.9960901,7.8494005
Kaiserslautern,49.4432174,7.7689951
Bochum,51.4818111,7.2196635
Koblenz,50.3533278,7.5943951
Berlin,52.5170365,13.3888599
Hagen,51.3582945,7.473296
Paderborn,51.7177044,8.752653
Mainz,50.0012314,8.2762513
Karlsruhe,49.0068705,8.4034195
Regensburg,49.0195333,12.0974869
Ludwigshafen am Rhein,49.4704113,8.4381568
Düsseldorf,51.2254018,6.7763137
Cáceres,39.4745175,-6.3716761
Cuenca,40.0661031,-2.1313528
Cádiz,36.5297438,-6.2928976
Almería,36.8414197,-2.4628135
Badajoz,38.878187,-6.9701115
Teruel,40.3436719,-1.1081939
Soria,41.7633842,-2.4642041
Salamanca,40.9651572,-5.6640182
Palencia,42.0108856,-4.5328735
Huelva,37.2575874,-6.9484945
Granada,37.1734995,-3.5995337
Тараз,42.9015945,71.3769302
Koumra قمرة,8.9189081,17.5478111
Francistown,-21.16636,27.502515
Қарағанды,49.8161282,73.1026622
Павлодар,52.2857573,76.9455035
Өскемен,49.9484438,82.6274791
Woodstock,43.1301111,-80.7562977
Ақтөбе,50.2836268,57.2298651
Қызылорда,44.8426778,65.5036151
Көкшетау,53.2852054,69.3814676
Рудный,52.964458,63.133488
Талдықорған,45.0164138,78.3791841
Pibor,6.8011197,33.1297059
Віцебск,55.1930197,30.2070437
Ліда,53.8949515,25.295719
Баранавічы,53.1322925,26.0184156
Пінск,52.1113862,26.1025274
Салігорск,52.7893039,27.5318168
Барысаў,54.2240665,28.5117849
Encarnación,-27.3376114,-55.8669492
Uruguaiana,-29.7560726,-57.0867546
Vitória,-20.3200917,-40.3376682
KuanyLualThɔa̱n,8.6154098,33.0604914
阿拉山口市 ئالاتاۋ,45.1707258,82.5669384
San-Pédro,4.7581592,-6.641549
Lelystad,52.5150949,5.4768915
Salgótarján,48.0960676,19.8005642
Vellore,12.9071753,79.1309695
Okahandja,-21.979231,16.9128172
Le Plateau,5.328049,-4.021246
Cocody,5.357367,-3.994934
Yopougon,5.335194,-4.075756
伊宁市 غۇلجا,43.9052027,81.2747797
Port Louis,-20.1624522,57.5028044
Mbabane,-26.325745,31.144663
Manzini,-26.4958706,31.3695887
Goiânia,-16.680882,-49.2532691
Aracaju,-10.9162061,-37.0774655
Maceió,-9.6476843,-35.7339264
さいたま市,35.8616402,139.6457957
سرگودھا,32.0889657,72.6776943
چنیوٹ,31.7223135,72.9802538
阿克苏市 ئاقسۇ,41.1686701,80.2581875
阿勒泰市 التاي,47.8257562,88.1291701
阿拉善左旗 ᠠᠯᠠᠱᠠ ᠵᠡᠭᠦᠨ,38.832365,105.6605393
安多县 ཨ་མདོ།,32.2676152,91.6810713
安国市,38.4277476,115.3303798
安康市,32.7064648,109.0177837
安吉县,30.6383107,119.6755006
安陆市,31.2578483,113.683285
安平县,38.2294881,115.5137046
安宁市,24.9248708,102.4844287
安丘市,36.4794705,119.2129818
安庆市,30.5276161,117.0515956
安仁县,26.7129465,113.2639485
安顺市,26.254911,105.9437773
安乡县,29.4135596,112.1652707
安阳市,36.1023552,114.33633
安阳县,36.0837844,114.4664226
阿图什市 ئاتۇش / ارتىش,39.715261,76.166016
白城市,45.6156275,122.8360811
巴东县,31.0446443,110.3352957
白朗县 པ་སྣམ།,29.1115795,89.2596268
拜泉县,47.6059986,126.085015
班戈县 དཔལ་མགོན།,31.3946694,90.0076805
白银区,36.5335943,104.1467428
柏乡县,37.4915024,114.6894394
白水县,35.1785126,109.5876073
宝丰县,33.8668474,113.0542631
白玉县 དཔལ་ཡུལ།,31.2128469,98.8225333
巴马县,24.1437442,107.2558901
宝安区,22.5598573,113.8790404
宝山区,31.4073905,121.4848384
包头市 ᠪᠤᠭᠤᠲᠤ,40.6174777,109.944912
保靖县,28.7034254,109.6553961
宝鸡市,34.3609713,107.2322378
宝清县,46.3235531,132.1986841
霸州市,39.1120884,116.3922323
渝中区,29.5555987,106.5653809
北安市,48.2401404,126.5081882
巴州区,31.8537757,106.764686
北海市,21.4845174,109.1165772
巴彦淖尔市 ᠪᠠᠶᠠᠨᠨᠠᠭᠤᠷ,40.7419202,107.3819572
本溪市,41.2921601,123.7593948
本溪县,41.3003165,124.116244
北镇市,41.5961111,121.792778
蚌埠市,32.9176422,117.3825673
北票市,41.8000713,120.7655332
北辰区,39.2242752,117.1321099
宾县,45.7434153,127.4602943
彬州市,35.0362878,108.0797604
博乐市 بۆرتالا,44.8528771,82.0504585
博爱县,35.1704956,113.0668539
泌阳县,32.7264312,113.3206292
比如县 འབྲི་རུ།,31.4821007,93.6799147
滨州市,37.3821206,117.9647262
博兴县,37.1535401,118.1046769
泊头市,38.0764217,116.5696393
百色市,23.9053605,106.6148824
勃利县,45.7512375,130.5678432
曹县,34.8587459,115.5508246
沧州市,38.3042796,116.8511597
博野县,38.4575837,115.4603956
布尔津县 بۋىرشىن,47.7006173,86.872219
兰陵县,34.8586131,118.0652879
苍南县,27.5184046,120.4232915
长葛市,34.2156961,113.7676736
昌吉市 سانجى,44.0124158,87.2640443
长乐区,25.9660393,119.5185643
长春市,43.8844201,125.3180998
常德市,29.034552,111.6928724
长寿区,29.8605673,107.0779121
长沙县,28.2491934,113.0748296
长汀县,25.8365297,116.3528512
长泰区,24.6284169,117.7541918
昌宁县,24.8256972,99.6104198
长宁区,31.2221187,121.4200917
昌黎县,39.7039133,119.1614947
常山县,28.9060233,118.5063585
长清区,36.5539604,116.7464153
昌平区,40.2196456,116.2250912
长宁县,28.5825621,104.9187489
朝阳市,41.5754767,120.4390738
成安县,36.4424615,114.685254
城步县,26.3941251,110.3178427
潮州市,23.656593,116.6204223
昌邑市,36.8394346,119.4013261
长垣市,35.2000381,114.6629926
长兴县,31.0278566,119.9066473
常州市,31.8122623,119.9691539
巢湖市,31.6261473,117.8854283
长治市,36.1830167,113.0992929
上党区,36.0500991,113.0483202
郴州市,25.7733598,113.0094337
辰溪县,28.0098203,110.178916
赤峰市 ᠤᠯᠠᠭᠠᠨᠬᠠᠳᠠ,42.2811677,118.9426564
成都市,30.6598628,104.0633717
承德县,40.7721353,118.163919
崇阳县,29.5588253,114.0338289
崇州市,30.6256088,103.6722448
茌平区,36.5865512,116.2406737
赤水市,28.5914382,105.6956747
大厂县,39.8851468,116.9803804
大埔县,24.3505527,116.6902216
措勤县 མཚོ་ཆེན།,31.0189499,85.150079
慈溪市,30.1730437,121.2623259
磁县,36.3674964,114.3717459
楚雄市,25.0359139,101.5446219
滁州市,32.3027377,118.3139455
当雄县 འདམ་གཞུང།,30.474883,91.0998362
大城县,38.6994744,116.6371407
岱山县,30.2652069,122.2230072
大方县,27.1495528,105.6003223
大丰区,33.2019957,120.4564759
大庆市,46.5969028,125.1014811
道真县,28.8695065,107.6069394
大同市,40.0919817,113.2951122
大洼区,40.9998528,122.071838
大兴区,39.725413,116.3354417
通川区,31.2172897,107.4992652
丹东市,40.1237658,124.3821748
当阳市,30.8238636,111.7823966
丹徒区,32.132661,119.4284497
丹江口市,32.5429981,111.5070101
丹阳市,32.0109736,119.6012702
登封市,34.4551772,113.0444455
灯塔市,41.4244866,123.3335139
丁青县 སྟེང་ཆེན།,31.414119,95.5958345
邓州市,32.6880537,112.0818901
旌阳区,31.1404211,104.3922358
德州市,37.4363704,116.3534091
垫江县,30.3293784,107.3295963
大新县,22.8393146,107.2107083
大姚县,25.7247294,101.322128
大冶市,30.0985567,114.9748074
大邑县,30.5901965,103.5212874
张家界市,29.1176794,110.4741428
大余县,25.403041,114.3566689
德保县,23.3265574,106.6119199
德昌县 ꄓꍣꑤ,27.4057218,102.1751493
德惠市,44.5350141,125.6954363
德江县,28.2664303,108.1114695
洞口县,27.0637711,110.5713034
东光县,37.8823846,116.5427315
东港市,39.8789142,124.1458478
东丰县,42.6708242,125.53093
东方市,19.0979286,108.6482353
东台市,32.8536216,120.3122464
东胜区 ᠳ᠋ᠦᠩᠱᠧᠩ,39.820393,109.9577645
东平县,35.9364734,116.4646998
东明县,35.275857,115.1015207
东兰县,24.5135608,107.3699251
定西市,35.5810207,104.6229826
定兴县,39.2652271,115.7974802
定陶区,35.0758996,115.565062
定海区,30.0215992,122.1025956
定结县 གཏིང་སྐྱེས།,28.3683007,87.7634065
东阿县,36.3337944,116.2591454
东安县,26.3952429,111.3106069
东城区,39.9269012,116.4100395
定州市,38.5112175,114.9970044
安定区,35.5814215,104.6080096
恩施市,30.2974854,109.4746431
鄂州市,30.3925379,114.8898988
二连浩特市 ᠡᠷᠢᠶᠡᠡ ᠬᠣᠲᠠ,43.6407813,111.943519
东阳市,29.2924528,120.2372669
东营市,37.4334738,118.6689349
东至县,30.1129671,117.0220973
东乡县,35.6637585,103.3859007
敦化市 돈화시,43.3686205,128.2267987
斗门区,22.2119876,113.2909793
都安县,23.9340535,108.1008209
都兰县 ཏུའུ་ལན།,36.3020273,98.0951891
封丘县,35.0432308,114.42108
丰宁县,41.2194964,116.6340777
丰台区,39.8571176,116.2804172
凤山县,24.5475515,107.0407246
丰南区,39.5747384,118.0785049
奉化区,29.6575869,121.4017136
肥城市,36.1841443,116.7653466
凤城市,40.4500763,124.0637454
肥乡区,36.5506972,114.7959218
费县,35.2662953,117.9721788
方城县,33.2593594,113.0001059
繁昌区,31.103204,118.1939852
房山区,39.7456173,116.13707
涪陵区,29.7065405,107.3910809
阜南县,32.6405654,115.5836827
阜宁县,33.7600632,119.7968966
抚宁区,39.883217,119.2443602
福鼎市,27.3279195,120.2125652
扶风县,34.3784366,107.8921856
扶沟县,34.0560556,114.3890051
福海县 بۋرىلتوعاي,47.1114906,87.4837492
富锦市,47.2398155,132.0251042
汾阳市,37.2683004,111.7830029
佛冈县,23.8825802,113.5262764
福安市,27.0909995,119.6433621
佛山市,23.0239788,113.1159558
富川县,24.821618,111.2693007
阜城县,37.8676325,116.1679917
丰县,34.6934639,116.5905489
丰镇市 ᠹᠧᠩᠵᠧᠨ,40.4346408,113.1570814
岗巴县 གམ་པ།,28.275194,88.5133005
福州市,26.0774954,119.2918215
抚州市,27.9511188,116.3530413
富阳区,30.0504847,119.9559051
阜阳市,32.8926763,115.8090001
阜新市,42.0151733,121.6452868
抚顺市,41.8692972,123.924157
福泉市,26.7046919,107.5085612
福清市,25.7237321,119.3795377
阜平县,38.8477484,114.1923685
公安县,30.0609391,112.2240645
个旧市,23.3618738,103.1577391
高邑县,37.6057906,114.6030319
高邮市,32.7875425,119.4326277
高要区,23.0279783,112.452589
高阳县,38.6906807,115.7719484
高平市,35.7984314,112.9229854
高密市,36.3654065,119.8005385
高明区,22.9032867,112.8866883
赣州市,25.8332103,114.9287362
藁城区,38.0235712,114.8406059
桂林市,25.238704,110.1750728
故城县,37.3490348,115.9646818
贵阳市,26.6499922,106.6246178
桂平市,23.3916357,110.074064
固原市,36.0148906,106.2379036
固阳县,41.0298682,110.0567431
涡阳县,33.4949926,116.2106663
吉隆县 སྐྱིད་གྲོང།,28.8558984,85.2950291
江孜县 རྒྱལ་རྩེ།,28.9149102,89.6036509
加查县 རྒྱ་ཚ།,29.1440704,92.5936179
固镇县,33.3200747,117.3108526
沽源县,41.6681741,115.6821748
公主岭市,43.5025009,124.8127196
贡觉县 གོ་འཇོ།,30.8626495,98.2703563
广汉市,30.9818013,104.2725546
广南县,24.0479436,105.0519035
广州市,23.1301964,113.2592945
广平县,36.4824087,114.9390742
广宁县,23.6348923,112.4317972
光山县,32.0131752,114.8977873
广饶县,37.0486917,118.4129962
固安县,39.4406082,116.2978819
冠县,36.4827737,115.4446073
灌阳县,25.4923508,111.1556393
关岭县,25.9471721,105.6166463
都江堰市,30.9965254,103.6142723
馆陶县,36.5435347,115.28088
汉中市,33.069049,107.018889
汉阳区,30.5566655,114.2131725
鹤壁市,35.7494986,114.2912899
合川区,29.9746891,106.272238
鹤岗市,47.3272338,130.2684769
河间市,38.4425293,116.0901457
黑水县 ཁྲོ་ཆུ།,32.0650546,102.9875776
河津市,35.5957768,110.7057517
和静县 خېجىڭ,42.3219766,86.3817516
衡东县,27.0843342,112.9480217
和龙市 화룡시,42.5437508,129.0043408
海城市,40.8522995,122.7477959
海淀区,39.9580718,116.292405
海口市,20.0462328,110.1956502
海林市,44.5733458,129.3815749
海伦市,47.4583585,126.9572246
海门区,31.8729183,121.1771295
海宁市,30.5142256,120.6759733
海兴县,38.1406662,117.4908501
海阳市,36.6884947,121.168464
海盐县,30.5276676,120.9420572
伊州区 ئىۋىرغول,42.8254995,93.5130464
韩城市,35.4762519,110.4508029
邯郸市,36.6107711,114.4857072
汉川市,30.6562575,113.8329583
杭锦后旗 ᠬᠠᠩᠭᠢᠨ ᠬᠣᠶᠢᠲᠤ,40.8881718,107.1418596
杭州市,30.2489634,120.2052342
和硕县 خوشۇت,42.26659,86.861767
侯马市,35.6254159,111.362708
和田市 خوتەن,37.1126842,79.9111626
虹口区,31.2664424,121.5007794
洪江市,27.2127857,109.8319249
洪湖市,29.8287906,113.4706905
淮阳区,33.7330494,114.8842326
淮安市,33.5524785,119.1075773
怀柔区,40.3154808,116.626028
淮南市,32.5866826,117.0130019
怀集县,23.9228747,112.1616895
淮滨县,32.4737762,115.4140835
怀化市,27.5713952,109.9972341
淮北市,33.9566098,116.7928916
桦川县,47.0263328,130.7130303
合山市,23.8144989,108.8855377
衡水市,37.7364305,115.6677229
呼和浩特市 ᠬᠥᠬᠡᠬᠣᠲᠠ,40.8337963,111.6730788
河源市,23.746777,114.6954482
菏泽市,35.2477266,115.4464761
八步区,24.4155435,111.5464663
惠民县,37.4892875,117.5034499
会理市 ꑌꄷꏃ,26.6600172,102.2438732
辉县市,35.4625141,113.7976228
会同县,26.8907234,109.7309308
惠水县,26.1340725,106.6526874
惠安县,25.0340507,118.7919514
化州市,21.6669324,110.6352871
珲春市 훈춘시,42.8591383,130.3590291
白山市,41.9369269,126.4184919
获嘉县,35.258,113.6433269
鹿泉区,38.0855891,114.3044795
浑源县,39.693262,113.6878685
霍城县 قورغاس,44.0540491,80.8766921
黄山市,29.7172627,118.3324811
惠州市,23.1146515,114.4107202
黄梅县,30.0754675,115.9344837
黄浦区,31.2335925,121.479864
黄岩区,28.65319,121.2576325
黄石市,30.2024971,115.0334144
淮阴区,33.6337976,119.02934
桦南县,46.2354272,130.5570647
黄冈市,30.4560187,114.8673226
黄陵县,35.5828559,109.2596289
黄骅市,38.366667,117.333333
滑县,35.5765029,114.5184726
华蓥市,30.3843078,106.775599
华阴市,34.5675163,110.0920915
花垣县,28.5755672,109.4769796
桓仁县,41.2681066,125.3487306
桓台县,36.9590987,118.0926284
华坪县,26.6318811,101.2628982
简阳市,30.3915544,104.5532107
建阳区,27.3352843,118.1153328
蛟河市,43.7213101,127.3420195
焦作市,35.2075729,113.2533977
椒江区,28.6758042,121.4385711
黄岛区,35.9589567,120.1930928
江阴市,31.9215518,120.2808847
江宁区,31.9552184,118.8348197
江山市,28.7417596,118.6226466
建瓯市,27.0261059,118.2999166
江油市,31.7777135,104.73443
江北区,29.6090829,106.5713488
吉安市,27.0937349,114.961355
建昌县,40.8124003,119.8021383
夹江县,29.7360197,103.5739165
将乐县,26.7318594,117.4663942
江津区,29.3226898,106.260551
剑阁县,32.2909937,105.5219946
江都区,32.4374578,119.5647288
霍州市,36.5719389,111.7309206
嘉定区,31.377756,121.2606119
嘉禾县,25.5903939,112.3631549
靖宇县,42.3879926,126.8104016
靖远县,36.5596305,104.6822413
金华市,29.1080344,119.6486487
荆州市,30.3375612,112.2337264
济宁市,35.4125047,116.5849266
晋江市,24.784435,118.5477505
锦屏县,26.6774641,109.1938575
金山区,30.744817,121.3372571
津市市,29.6088759,111.8717902
靖江市,31.9861352,120.2725083
荆门市,31.0375248,112.1937979
泾县,30.6908834,118.4142688
景县,37.690556,116.260833
井陉县,38.0327329,114.1354742
金昌市,38.5206719,102.185973
济南市,36.6661305,117.0199472
静安区,31.2295183,121.4427835
晋城市,35.4913132,112.8454497
景德镇市,29.2712774,117.1727822
旌德县,30.2991569,118.544915
泾川县,35.3333327,107.3628831
佳县,38.0190612,110.4891824
嘉祥县,35.4089574,116.3368106
介休市,37.0310036,111.9154182
界首市,33.2619055,115.3540362
吉林市,43.8562659,126.5737676
康马县 ཁང་དམར།,28.5592341,89.6797049
康平县,42.7358876,123.3447181
克拉玛依区 قاراماي رایونی,45.6003911,84.8660538
康定市 དར་མདོ།,30.0002558,101.9545581
开原市,42.5434674,124.0382894
凯里市,26.5710542,107.9769525
开封市,34.7961106,114.3472038
开化县,29.1399083,118.4108029
句容市,31.9478237,119.1633971
鄄城县,35.5344257,115.5387841
巨鹿县,37.2170455,115.0337736
江达县 འཇོ་མདའ།,31.5018221,98.2177078
济源市,35.0945453,112.5810521
集贤县,46.7236489,131.125239
冀州区,37.543722,115.5795593
卫辉市,35.4126425,114.0633095
九台区,44.1523236,125.8387384
九龙县 བརྒྱད་ཟིལ།,29.0033649,101.5055715
九江市,29.6653828,115.9474861
吉首市,28.265262,109.6938658
通辽市 ᠲᠦᠩᠯᠢᠶ᠋ᠣᠣ,43.6151762,122.2601035
锦州市,41.1087113,121.1186159
晋中市,37.6866796,112.7383414
金寨县,31.7297166,115.9289147
缙云县,28.6615529,120.0869565
葫芦岛市,40.7515443,120.8404789
金乡县,35.074498,116.3141927
凌海市,41.1676142,121.355281
晋州市,38.0328936,115.0341055
金坛区,31.7233197,119.5825196
连城县,25.7125573,116.74956
梁平区,30.6551092,107.7651759
乐山市,29.5851296,103.747791
乐业县,24.7886823,106.5570754
拉孜县 ལྷ་རྩེ།,29.0931921,87.6373827
耒阳市,26.4255243,112.8545783
雷山县,26.3825439,108.0753069
冷水江市,27.6581325,111.4534719
乐陵市,37.7289733,117.2135729
乐平市,28.9800529,117.1482986
冷水滩区,26.464927,111.5870727
兰西县,46.2536252,126.2814338
老河口市,32.3615609,111.6791987
崂山区,36.1059695,120.4645782
乐昌市,25.1336802,113.3421644
阆中市,31.579591,105.9694609
廊坊市,39.5302055,116.6926134
蓝田县,34.1576897,109.3124865
莱西市,36.8618279,120.5158492
来凤县,29.495755,109.4032717
莱阳市,36.9786591,120.7068644
来宾市,23.7532648,109.2169807
奎屯市 كۇيتۇن,44.4245113,84.9006885
克东县,48.0348841,126.2466838
喀什市 قەشقەر,39.4665981,75.9900135
库尔勒市 كورلا,41.7238743,86.173541
克山县,48.0330461,125.8645353
垦利区,37.5714983,118.5696505
临漳县,36.3341789,114.5976255
临沂市,35.1032403,118.3506988
临颍县,33.815351,113.9344444
临邑县,37.1767104,116.8507744
临西县,36.8618258,115.4904177
临湘市,29.4769835,113.4454266
柳州市,24.3284746,109.4239676
柳河县,42.2779439,125.7349239
柳城县,24.6530412,109.2403085
丽水市,28.4704064,119.9184297
龙井市 룡정시,42.76411,129.4205702
龙口市,37.6443474,120.4708629
隆回县,27.1175905,111.0271777
龙海区,24.4490237,117.8132438
隆德县,35.6137337,106.1209325
蠡县,38.4864455,115.5775272
利辛县,33.1444336,116.1972468
隆尧县,37.3527745,114.7739376
龙游县,29.0309691,119.1673661
龙岩市,25.0767425,117.0123483
龙山县,29.4599805,109.4392944
龙泉市,28.0760972,119.1370006
陇南市,33.3721445,104.9572932
涟水县,33.7834689,119.2552118
连州市,24.783812,112.3717844
涟源市,27.6958345,111.6593577
连云港市,34.5933134,119.2171662
聊城市,36.4441808,115.9642007
辽阳市,41.2742898,123.1695757
廉江市,21.6121954,110.2818122
醴陵市,27.6500795,113.4923249
利津县,37.4964272,118.2420463
临沧市,23.88848,100.0879344
临安区,30.2371364,119.7192631
临川区,27.9362786,116.3069893
临城县,37.442735,114.4962683
林甸县,47.1805263,124.8724132
辽源市,42.8863846,125.1374905
荔波县,25.4270251,107.8949459
利川市,30.2937431,108.9322926
灵寿县,38.307222,114.368056
灵武市,38.1020474,106.3355786
灵宝市,34.5453526,110.8795605
灵山县,22.4220044,109.2911816
永州市,26.423568,111.6081495
邻水县,30.3374613,106.9261715
汝州市,34.1678145,112.8392579
临潼区,34.3684448,109.2092937
凌云县,24.349261,106.5606981
凌源市,41.240767,119.3958124
临清市,36.8459198,115.7118439
满城区,38.9523591,115.3175649
湄潭县,27.7511209,107.4574781
梅州市,24.2918414,116.1171428
梅县区,24.2694484,116.0761056
孟村县,38.052498,117.0981778
门头沟区,39.9389127,116.09504
蒙山县,24.1962534,110.5202451
孟州市,34.9065165,112.7920963
蒙阴县,35.7200664,117.9462238
汨罗市,28.8101339,113.0613336
绵竹市,31.3413886,104.1979778
绵阳市,31.4602714,104.7160723
民勤县,38.626481,103.0950181
民和县,36.3290875,102.8058806
明溪县,26.359355,117.1967922
密山市,45.5445899,131.8713602
新密市,34.5307313,113.3761237
莫力达瓦旗 ᠮᠣᠷᠢᠨ ᠳᠠᠪᠠᠭ᠎ᠠ,48.4710543,124.4887489
牟定县,25.3156588,101.545526
娄底市,27.6995215,111.9890658
栾城区,37.8834011,114.6519245
滦南县,39.519236,118.6776438
六安市,31.7383487,116.5142252
滦平县,40.9392159,117.3263966
潞城区,36.3323996,113.2229175
禄丰市,25.1524346,102.0772106
陆丰市,22.9455881,115.6407142
六合区,32.3252938,118.816457
吕梁市,37.5180245,111.1382201
陆良县,25.0314329,103.6622775
漯河市,33.571189,114.0289356
洛宁县,34.3912521,111.6451039
洛阳市,34.6196539,112.4477046
罗山县,32.2061023,114.5075758
六盘水市,26.5963778,104.8279652
鹿寨县,24.4758562,109.7459829
鹿邑县,33.8629228,115.4821629
麻城市,31.1708218,115.0159244
泸州市,28.8744722,105.4385063
马鞍山市,31.6866105,118.5048377
巴宜区 བྲག་ཡིབ།,29.6386235,94.3599408
尼木县 སྙེ་མོ།,29.4348553,90.1654158
聂荣县 སྙན་རོང།,32.1100435,92.3022178
宁阳县,35.7591944,116.800091
宁乡市,28.2794129,112.5465696
宁陵县,34.4612994,115.3083302
宁化县,26.2652762,116.6497871
宁晋县,37.6180744,114.9145405
宁海县,29.2907774,121.4252252
宁城县 ᠨᠢᠩᠴᠧᠩ,41.5968435,119.3144594
宁德市,26.6695006,119.5432715
宁波市,29.8622194,121.6203873
平谷区,40.1390433,117.1146953
平果市,23.3324001,107.5859958
平湖市,30.6782402,121.0116196
平和县,24.3659798,117.3095011
平顶山市,33.7374744,113.2981436
平度市,36.7842974,119.9493639
平安区,36.5000989,102.1061276
平坝区,26.4171781,106.2547525
蓬莱区,37.7949103,120.824268
彭水县,29.2962877,108.1610845
番禺区,22.9387253,113.3785422
攀枝花市,26.5860102,101.7179276
沛县,34.7300367,116.9328854
磐安县,29.0573079,120.4455893
盘锦市,41.1169056,122.0655098
盘山县,41.2416751,121.9942467
磐石市,42.9409718,126.052932
鄂伦春旗 ᠣᠷᠴᠣᠨ ᠤ,50.5902344,123.71817
南华县,25.1951959,101.2719819
南和区,37.0055919,114.679299
